"VEGAN_CODE","VEGAN_NAME","STD_DAY","CATE_CODE","GU","DONG","GU_CODE","DONG_CODE","ADD_STR","LAT","LON","SI_DO_CODE","SI_DO"
3896,"북한산 통큰 장어","2022-11-02","H113","은평구","진관동",11120,1138011400,"서울특별시 은평구 대서문길 11",37.657532,126.9471747,11,"서울특별시"
3897,"만석장","2022-11-02","H113","은평구","진관동",11120,1138011400,"서울특별시 은평구 대서문길  43-10 1층, 2층",37.6558594,126.9495669,11,"서울특별시"
3898,"피향정","2022-11-02","H113","은평구","진관동",11120,1138011400,"서울특별시 은평구 통일로 1010 (진관동) ",37.6327293,126.9185551,11,"서울특별시"
4936,"본죽 수유사거리점","2022-11-02","H113","강북구","수유동",11090,1130510300,"서울특별시 강북구 도봉로 285 (수유동) 1층",37.6339024,127.0230889,11,"서울특별시"
4937,"본죽 우이사거리점","2022-11-02","H113","강북구","수유동",11090,1130510300,"서울특별시 강북구 삼양로 423(수유동) ",37.6412551,127.0166133,11,"서울특별시"
4938,"본 죽&비빔밥 수유점","2022-11-02","H113","강북구","수유동",11090,1130510300,"서울특별시 강북구 한천로 1043 (수유동) ",37.6402972,127.0260531,11,"서울특별시"
4939,"본죽 수유점","2022-11-02","H113","강북구","수유동",11090,1130510300,"서울특별시 강북구 한천로 1043 (수유동)  ",37.6402972,127.0260531,11,"서울특별시"
4940,"레드라인","2022-11-02","H113","강북구","수유동",11090,1130510300,"서울특별시 강북구 삼양로87길 30",37.6358274,127.0161977,11,"서울특별시"
4941,"마을찻집 마주이야기","2022-11-02","H113","강북구","수유동",11090,1130510300,"서울특별시 강북구 인수봉로55길 10",37.6368762,127.0123202,11,"서울특별시"
4942,"샐러디 (수유역점)","2022-11-02","H113","강북구","수유동",11090,1130510300,"서울특별시 강북구 도봉로 353-1, 1층(수유동)",37.6392291,127.0265543,11,"서울특별시"
4943,"올드델리 (수유)","2022-11-02","H113","강북구","수유동",11090,1130510300,"서울특별시 강북구 도봉로 355",37.6393476,127.0267227,11,"서울특별시"
4135,"지우정","2022-11-02","H113","강북구","수유동",11090,1130510300,"서울특별시 강북구 삼각산로 130(수유동)",37.6408307,127.0186698,11,"서울특별시"
4136,"다리원","2022-11-02","H113","강북구","수유동",11090,1130510300,"서울특별시 강북구 노해로8길 2",37.6376422,127.0231532,11,"서울특별시"
4137,"착한낙지","2022-11-02","H113","강북구","수유동",11090,1130510300,"서울특별시 강북구 4.19로 82(1층 수유동)",37.6456783,127.0057674,11,"서울특별시"
4138,"토종집","2022-11-02","H113","강북구","수유동",11090,1130510300,"서울특별시 강북구 인수봉로19나길 32",37.6271137,127.0107161,11,"서울특별시"
4139,"삼족오","2022-11-02","H113","강북구","수유동",11090,1130510300,"서울특별시 강북구 한천로 1067-1",37.6417492,127.0240399,11,"서울특별시"
4140,"석가가든","2022-11-02","H113","강북구","수유동",11090,1130510300,"서울특별시 강북구 한천로  1160",37.6475534,127.0166323,11,"서울특별시"
4141,"크을농","2022-11-02","H113","강북구","수유동",11090,1130510300,"서울특별시 강북구 4.19로8길  7-14",37.6470065,127.0083446,11,"서울특별시"
4142,"유락손칼국수","2022-11-02","H113","강북구","수유동",11090,1130510300,"서울특별시 강북구 삼양로 461",37.6444459,127.0156761,11,"서울특별시"
4143,"남원추어탕","2022-11-02","H113","강북구","수유동",11090,1130510300,"서울특별시 강북구 노해로 19 1층",37.6372329,127.0226827,11,"서울특별시"
4144,"향촌추어탕","2022-11-02","H113","강북구","수유동",11090,1130510300,"서울특별시 강북구 노해로22길  7-2",37.6437716,127.0234469,11,"서울특별시"
4145,"군산해물탕","2022-11-02","H113","강북구","수유동",11090,1130510300,"서울특별시 강북구 한천로139길 41",37.6385778,127.0251578,11,"서울특별시"
4146,"곽만근 갈비탕 수유점","2022-11-02","H113","강북구","수유동",11090,1130510300,"서울특별시 강북구 노해로  3",37.6359087,127.0227227,11,"서울특별시"
4147,"곰집","2022-11-02","H113","강북구","수유동",11090,1130510300,"서울특별시 강북구 한천로143길  22",37.6407767,127.0241093,11,"서울특별시"
4148,"이설면옥","2022-11-02","H113","강북구","수유동",11090,1130510300,"서울특별시 강북구 4.19로 42(1,2층 수유동)",37.6473061,127.0096891,11,"서울특별시"
4149,"본가","2022-11-02","H113","강북구","수유동",11090,1130510300,"서울특별시 강북구 삼각산로 122",37.6407508,127.0177304,11,"서울특별시"
4150,"윤가네 오리구이 전문점","2022-11-02","H113","강북구","수유동",11090,1130510300,"서울특별시 강북구 한천로144길 79(수유동)",37.6440717,127.0281455,11,"서울특별시"
4151,"대가원","2022-11-02","H113","강북구","수유동",11090,1130510300,"서울특별시 강북구 한천로 1064",37.6417373,127.0247766,11,"서울특별시"
4152,"시골쌈밥","2022-11-02","H113","강북구","수유동",11090,1130510300,"서울특별시 강북구 덕릉로19길  8",37.634907,127.0203679,11,"서울특별시"
4153,"궁전기사식당","2022-11-02","H113","강북구","수유동",11090,1130510300,"서울특별시 강북구 한천로  1159",37.6472449,127.0163757,11,"서울특별시"
4154,"원할머니보쌈수유역점","2022-11-02","H113","강북구","수유동",11090,1130510300,"서울특별시 강북구 한천로 1054",37.6411135,127.0256119,11,"서울특별시"
4155,"흥수식당","2022-11-02","H113","강북구","수유동",11090,1130510300,"서울특별시 강북구 도봉로99길 41-12",37.6429289,127.0272312,11,"서울특별시"
5351,"본 죽&비빔밥 시흥사거리점","2022-11-02","H113","금천구","시흥동",11180,1154510300,"서울특별시 금천구 금하로 619 (시흥동) 1층",37.4546932,126.8999542,11,"서울특별시"
5352,"본죽 시흥점","2022-11-02","H113","금천구","시흥동",11180,1154510300,"서울특별시 금천구 금하로 760 (시흥동) ",37.4499125,126.9140159,11,"서울특별시"
5353,"본도시락 금천구청점","2022-11-02","H113","금천구","시흥동",11180,1154510300,"서울특별시 금천구 시흥대로 251 (시흥동, 도일산호시티빌) ",37.4561131,126.8995491,11,"서울특별시"
4892,"남도","2022-11-02","H113","중구","다동",11020,1114010200,"서울특별시 중구 남대문로9길 40(다동, 센터플레이스빌딩 2층 206~207호)",37.5672105,126.9807761,11,"서울특별시"
4893,"낙동강","2022-11-02","H113","중구","다동",11020,1114010200,"서울특별시 중구 을지로1길 34(다동)",37.5676351,126.9798534,11,"서울특별시"
4894,"잘차려진바다","2022-11-02","H113","중구","다동",11020,1114010200,"서울특별시 중구 남대문로9길 8",37.5668067,126.9820154,11,"서울특별시"
5019,"본 죽&비빔밥 발산사거리점","2022-11-02","H113","강서구","마곡동",11160,1150010500,"서울특별시 강서구 공항대로 269-15 (마곡동, 힐스테이트에코마곡) 105호",37.5596129,126.8372377,11,"서울특별시"
5020,"본 죽&비빔밥 신방화역점","2022-11-02","H113","강서구","마곡동",11160,1150010500,"서울특별시 강서구 마곡중앙5로 81 (마곡동, 에스비타운) ",37.5671136,126.8186024,11,"서울특별시"
5021,"본 죽&비빔밥 마곡역점","2022-11-02","H113","강서구","마곡동",11160,1150010500,"서울특별시 강서구 마곡중앙6로 16 (마곡동, 마곡지엠지타워) 111호",37.5604055,126.8290082,11,"서울특별시"
5022,"본 죽&비빔밥 마곡나루역점","2022-11-02","H113","강서구","마곡동",11160,1150010500,"서울특별시 강서구 마곡중앙로 161-8 (마곡동, 두산더랜드파크) A동 105호",37.5686239,126.8272948,11,"서울특별시"
5023,"샐러디 (신방화역점)","2022-11-02","H113","강서구","마곡동",11160,1150010500,"서울특별시 강서구 방화대로 294, 1층 117호(마곡동, 마곡더블유타워)",37.566999,126.8170535,11,"서울특별시"
5024,"퀴즈노스 (마곡나루역)","2022-11-02","H113","강서구","마곡동",11160,1150010500,"서울특별시 강서구 마곡중앙5로 6",37.5671307,126.826639,11,"서울특별시"
5025,"그리너 샐러드 마곡점","2022-11-02","H113","강서구","마곡동",11160,1150010500,"서울특별시 강서구 마곡중앙4로 18 마곡그랑트윈타워 B동 217호",37.5585275,126.8286188,11,"서울특별시"
5026,"공간녹음","2022-11-02","H113","강서구","마곡동",11160,1150010500,"서울특별시 강서구 공항대로 227 403호",37.559604,126.8326878,11,"서울특별시"
5027,"샐러디 (마곡발산역점)","2022-11-02","H113","강서구","마곡동",11160,1150010500,"서울특별시 강서구 공항대로 269-15, 1층 104호(마곡동, 힐스테이트에코마곡)",37.5596129,126.8372377,11,"서울특별시"
5028,"샐러디 (마곡나루역점)","2022-11-02","H113","강서구","마곡동",11160,1150010500,"서울특별시 강서구 마곡중앙5로 6, 1층 107호(마곡동)",37.5671307,126.826639,11,"서울특별시"
5029,"죠샌드위치 (마곡)","2022-11-02","H113","강서구","마곡동",11160,1150010500,"서울특별시 강서구 공항대로 195 힐스테이트 에코동익 상가 1층",37.5598846,126.8291748,11,"서울특별시"
5030,"반미362 (마곡점)","2022-11-02","H113","강서구","마곡동",11160,1150010500,"서울특별시 강서구 공항대로 261 발산파크프라자 1층 116호",37.5591553,126.8365204,11,"서울특별시"
4696,"본 죽&비빔밥 영등포시장역점","2022-11-02","H113","영등포구","영등포동5가",11190,1156010600,"서울특별시 영등포구 영등포로 219 (영등포동5가) ",37.5201162,126.9055896,11,"서울특별시"
4250,"한살림 마곡매장","2022-11-02","H113","강서구","마곡동",11160,1150010500,"서울특별시 강서구 마곡서1로 115-1 마곡헤리움 주상복합상가1층 101호, 102호",37.5667079,126.8185749,11,"서울특별시"
4251,"양천골용대리황태세상","2022-11-02","H113","강서구","마곡동",11160,1150010500,"서울특별시 강서구 공항대로 248(2층 207,208호 마곡동)",37.5584004,126.834891,11,"서울특별시"
4252,"장위동유성집","2022-11-02","H113","강서구","마곡동",11160,1150010500,"서울특별시 강서구 마곡중앙6로 16 201호",37.5604055,126.8290082,11,"서울특별시"
4253,"토끼정 마곡점","2022-11-02","H113","강서구","마곡동",11160,1150010500,"서울특별시 강서구 마곡동로 55(2층 202호 마곡동, 가양 1동 마커스빌딩)",37.560058,126.833043,11,"서울특별시"
4477,"한살림 금천시흥매장","2022-11-02","H113","금천구","시흥동",11180,1154510300,"서울특별시 금천구 시흥대로39길 11(시흥동)",37.4469414,126.9025653,11,"서울특별시"
4478,"자연드림 금천시흥점","2022-11-02","H113","금천구","시흥동",11180,1154510300,"서울특별시 금천구 금하로28길 4 신용빌딩 1층",37.4498687,126.9121856,11,"서울특별시"
4810,"본죽 마포도화점","2022-11-02","H113","마포구","도화동",11140,1144010400,"서울특별시 마포구 도화길 43 (도화동) 삼보나눔빌딩 202호 ",37.5417861,126.9502529,11,"서울특별시"
4811,"샐러디 (마포역점)","2022-11-02","H113","마포구","도화동",11140,1144010400,"서울특별시 마포구 마포대로 53, 1층 104호(도화동, 마포트라팰리스)",37.5413805,126.9472033,11,"서울특별시"
4867,"본 죽&비빔밥 가양점","2022-11-02","H113","강서구","등촌동",11160,1150010200,"서울특별시 강서구 양천로 564 (등촌동, 등촌동두산위브센티움) 106호",37.5570455,126.8613282,11,"서울특별시"
4868,"본죽 등촌3동점","2022-11-02","H113","강서구","등촌동",11160,1150010200,"서울특별시 강서구 공항대로41길 44 (등촌동)  아카데미프라자103호",37.5597258,126.8459963,11,"서울특별시"
4869,"샐러디 (가양역점)","2022-11-02","H113","강서구","등촌동",11160,1150010200,"서울특별시 강서구 양천로 500, 113호(등촌동, 등촌동노블리움오피스텔)",37.5605488,126.8555591,11,"서울특별시"
5136,"퀴즈노스 (종로YBM)","2022-11-02","H113","종로구","종로2가",11010,1111013800,"서울특별시 종로구 삼일대로 394",37.5697332,126.9880771,11,"서울특별시"
4037,"도마다리감자탕","2022-11-02","H113","마포구","도화동",11140,1144010400,"서울특별시 마포구 도화길  6 1층",37.5396844,126.9469556,11,"서울특별시"
4038,"이룸웨딩컨벤션","2022-11-02","H113","마포구","도화동",11140,1144010400,"서울특별시 마포구 마포대로  78 (도화동)",37.5418811,126.9497876,11,"서울특별시"
4068,"한살림 가양매장","2022-11-02","H113","강서구","등촌동",11160,1150010200,"서울특별시 강서구 양천로 556 1층",37.5577788,126.8607512,11,"서울특별시"
4069,"자연드림 강서등촌점","2022-11-02","H113","강서구","등촌동",11160,1150010200,"서울특별시 강서구 강서로56길 100 1층",37.5589158,126.8442432,11,"서울특별시"
4070,"주식회사 한우1번지","2022-11-02","H113","강서구","등촌동",11160,1150010200,"서울특별시 강서구 양천로 516",37.5598584,126.8568486,11,"서울특별시"
4071,"삼곱집","2022-11-02","H113","강서구","등촌동",11160,1150010200,"서울특별시 강서구 강서로54길 109 1층(등촌동)",37.5587043,126.8447331,11,"서울특별시"
4072,"등촌정육식당","2022-11-02","H113","강서구","등촌동",11160,1150010200,"서울특별시 강서구 공항대로59길  75",37.5550515,126.8629204,11,"서울특별시"
4073,"샤브미","2022-11-02","H113","강서구","등촌동",11160,1150010200,"서울특별시 강서구 화곡로 398(1층 등촌동, 1동 홈플러스강서점)",37.5584423,126.854833,11,"서울특별시"
4074,"(주)갈비생각 발산점","2022-11-02","H113","강서구","등촌동",11160,1150010200,"서울특별시 강서구 강서로54길 42 1층(등촌3동)",37.558813,126.8411096,11,"서울특별시"
4075,"목포낙지","2022-11-02","H113","강서구","등촌동",11160,1150010200,"서울특별시 강서구 강서로54길 99",37.5587438,126.8441666,11,"서울특별시"
4076,"화로구이","2022-11-02","H113","강서구","등촌동",11160,1150010200,"서울특별시 강서구 강서로  374 1~3층",37.5590424,126.8387858,11,"서울특별시"
4077,"해누리","2022-11-02","H113","강서구","등촌동",11160,1150010200,"서울특별시 강서구 공항대로59가길  17",37.5519344,126.8648351,11,"서울특별시"
4078,"포듀미트","2022-11-02","H113","강서구","등촌동",11160,1150010200,"서울특별시 강서구 공항대로 345 2층",37.55806,126.8461013,11,"서울특별시"
5411,"본도시락 양재중앙점","2022-11-02","H113","서초구","양재동",11220,1165010200,"서울특별시 서초구 논현로17길 3 (양재동)  ",37.4763944,127.0455049,11,"서울특별시"
5412,"본죽 서초우체국점","2022-11-02","H113","서초구","양재동",11220,1165010200,"서울특별시 서초구 동산로 14 (양재동)  ",37.469404,127.0412753,11,"서울특별시"
5413,"본 죽&비빔밥 포이점","2022-11-02","H113","서초구","양재동",11220,1165010200,"서울특별시 서초구 마방로10길 18-1 (양재동, 남광빌딩) ",37.476443,127.043718,11,"서울특별시"
4980,"거북이집","2022-11-02","H113","서대문구","연희동",11130,1141011700,"서울특별시 서대문구 연희맛로 12-1",37.5662694,126.9294212,11,"서울특별시"
4981,"엄마식탁","2022-11-02","H113","서대문구","연희동",11130,1141011700,"서울특별시 서대문구 연희맛로 17-21",37.5666334,126.9288161,11,"서울특별시"
4982,"본 죽&비빔밥 연희점","2022-11-02","H113","서대문구","연희동",11130,1141011700,"서울특별시 서대문구 연희맛로 18 (연희동) 1층",37.5667238,126.9298448,11,"서울특별시"
5414,"죠샌드위치 (오토갤러리)","2022-11-02","H113","서초구","양재동",11220,1165010200,"서울특별시 서초구 양재대로11길 36",37.4617962,127.0353815,11,"서울특별시"
5415,"더벨로 (양재)","2022-11-02","H113","서초구","양재동",11220,1165010200,"서울특별시 서초구 마방로6길 21",37.4749019,127.0425731,11,"서울특별시"
4210,"옛날집","2022-11-02","H113","서대문구","연희동",11130,1141011700,"서울특별시 서대문구 연희로 188-1 (연희동)",37.5738963,126.9358553,11,"서울특별시"
4211,"해남식당","2022-11-02","H113","서대문구","연희동",11130,1141011700,"서울특별시 서대문구 홍제천로6길 39(연희동)",37.5747928,126.9264011,11,"서울특별시"
4212,"고미정","2022-11-02","H113","서대문구","연희동",11130,1141011700,"서울특별시 서대문구 연희로26길 28(1,2층 연희동)",37.5727087,126.9370496,11,"서울특별시"
4213,"수빈떡갈비","2022-11-02","H113","서대문구","연희동",11130,1141011700,"서울특별시 서대문구 연희로25길 31-3(연희동)",37.5718732,126.9343332,11,"서울특별시"
4193,"백년추어탕","2022-11-02","H113","서대문구","연희동",11130,1141011700,"서울특별시 서대문구 증가로 9, 1층",37.5691705,126.9313833,11,"서울특별시"
4194,"강수사","2022-11-02","H113","서대문구","연희동",11130,1141011700," 서대문구 연희로 157 (연희동, 1,2층)",37.5713676,126.9342159,11,"서울특별시"
4195,"풍성삼겹살","2022-11-02","H113","서대문구","연희동",11130,1141011700,"서울특별시 서대문구 홍제천로 208 (연희동)",37.5794549,126.9357762,11,"서울특별시"
4196,"백암순대","2022-11-02","H113","서대문구","연희동",11130,1141011700,"서울특별시 서대문구 증가로 13-6",37.5693929,126.9310632,11,"서울특별시"
4197,"엄지식당","2022-11-02","H113","서대문구","연희동",11130,1141011700,"서울특별시 서대문구 모래내로 376-7 (연희동)",37.5824458,126.937715,11,"서울특별시"
4198,"선수사","2022-11-02","H113","서대문구","연희동",11130,1141011700,"서울특별시 서대문구 연희로 177",37.5730259,126.9352564,11,"서울특별시"
4199,"연희궁 우동","2022-11-02","H113","서대문구","연희동",11130,1141011700,"서울특별시 서대문구 연희로 183(연희동,지상1층)",37.5731955,126.9350842,11,"서울특별시"
4200,"마포갈비","2022-11-02","H113","서대문구","연희동",11130,1141011700,"서울특별시 서대문구 증가로 84, 1층 105호 (연희동)",37.5749886,126.9271228,11,"서울특별시"
4201,"우리황태","2022-11-02","H113","서대문구","연희동",11130,1141011700,"서울특별시 서대문구 홍제천로 208(연희동)",37.5794549,126.9357762,11,"서울특별시"
4202,"왕왕","2022-11-02","H113","서대문구","연희동",11130,1141011700,"서울특별시 서대문구 연희맛로 27",37.5676202,126.9303301,11,"서울특별시"
4203,"연희동 영월","2022-11-02","H113","서대문구","연희동",11130,1141011700,"서울특별시 서대문구 연희로 81-21(2층 연희동)",37.5658417,126.9289519,11,"서울특별시"
4204,"연희동손칼국수","2022-11-02","H113","서대문구","연희동",11130,1141011700,"서울특별시 서대문구 연희맛로 37",37.5682278,126.9307629,11,"서울특별시"
4205,"연희동태찜","2022-11-02","H113","서대문구","연희동",11130,1141011700,"서울특별시 서대문구 연희맛로 25(연희동)",37.56743,126.9302196,11,"서울특별시"
4206,"금강산","2022-11-02","H113","서대문구","연희동",11130,1141011700,"서울특별시 서대문구 연희로 81-30",37.5660245,126.9292436,11,"서울특별시"
4207,"연희옥","2022-11-02","H113","서대문구","연희동",11130,1141011700,"서울특별시 서대문구 연희로 81-26, 1층 (연희동)",37.565981,126.929414,11,"서울특별시"
4208,"청춘족발","2022-11-02","H113","서대문구","연희동",11130,1141011700,"서울특별시 서대문구 증가로 5(연희동)",37.5688672,126.9317159,11,"서울특별시"
4209,"녹원","2022-11-02","H113","서대문구","연희동",11130,1141011700,"서울특별시 서대문구 연희로25길 22",37.5724843,126.9341547,11,"서울특별시"
4214,"월성분식","2022-11-02","H113","서대문구","연희동",11130,1141011700,"서울특별시 서대문구 성산로 381",37.5631054,126.9312549,11,"서울특별시"
4508,"산내골","2022-11-02","H113","서초구","양재동",11220,1165010200,"서울특별시 서초구 강남대로34길 76(1층 양재동)",37.4839468,127.0401397,11,"서울특별시"
4509,"함흥식당","2022-11-02","H113","서초구","양재동",11220,1165010200,"서울특별시 서초구 마방로10길 54-2",37.4753711,127.0448735,11,"서울특별시"
4510,"경수사","2022-11-02","H113","서초구","양재동",11220,1165010200,"서울특별시 서초구 논현로19길  17",37.4762428,127.0445911,11,"서울특별시"
4511,"남원골추어탕","2022-11-02","H113","서초구","양재동",11220,1165010200,"서울특별시 서초구 남부순환로356길 23(양재동,1층)",37.4839127,127.0381614,11,"서울특별시"
4512,"늘봄숯불갈비","2022-11-02","H113","서초구","양재동",11220,1165010200,"서울특별시 서초구 강남대로4길 7",37.466928,127.0426183,11,"서울특별시"
4513,"구이마마","2022-11-02","H113","서초구","양재동",11220,1165010200,"서울특별시 서초구 강남대로25길  59 1층(양재동)",37.4755395,127.0356571,11,"서울특별시"
4514,"평가옥","2022-11-02","H113","서초구","양재동",11220,1165010200,"서울특별시 서초구 논현로 69",37.476189,127.0457337,11,"서울특별시"
4515,"약초마을","2022-11-02","H113","서초구","양재동",11220,1165010200,"서울특별시 서초구 강남대로2길 3(양재동,1층)",37.4667855,127.0428349,11,"서울특별시"
4516,"화돌농장","2022-11-02","H113","서초구","양재동",11220,1165010200,"서울특별시 서초구 매헌로16길  6 1층(양재동)",37.4673073,127.0349715,11,"서울특별시"
4587,"이밥","2022-11-02","H113","종로구","계동",11010,1111014800,"서울특별시 종로구 창덕궁1길 29",37.5792711,126.9876084,11,"서울특별시"
4588,"밀과보리","2022-11-02","H113","종로구","계동",11010,1111014800,"서울특별시 종로구 창덕궁1길 32-1",37.5794773,126.987481,11,"서울특별시"
5247,"남원추어탕","2022-11-02","H113","중랑구","면목동",11070,1126010100,"서울특별시 중랑구 면목로39길 32(면목동)",37.5801172,127.0857668,11,"서울특별시"
5248,"두채사랑전주콩나물국밥","2022-11-02","H113","중랑구","면목동",11070,1126010100,"서울특별시 중랑구 면목로  371",37.5851821,127.0882297,11,"서울특별시"
5249,"통큰갈비 면목점","2022-11-02","H113","중랑구","면목동",11070,1126010100,"서울특별시 중랑구 겸재로  187",37.5888052,127.0883554,11,"서울특별시"
5250,"서해쭈꾸미","2022-11-02","H113","중랑구","면목동",11070,1126010100,"서울특별시 중랑구 겸재로  191",37.5888457,127.088921,11,"서울특별시"
5251,"소문난 고깃집","2022-11-02","H113","중랑구","면목동",11070,1126010100,"서울특별시 중랑구 면목로56길  8",37.5839253,127.0888338,11,"서울특별시"
5252,"대가순대국","2022-11-02","H113","중랑구","면목동",11070,1126010100,"서울특별시 중랑구 사가정로52길  1-4",37.5804217,127.0878576,11,"서울특별시"
5253,"여자만아구찜","2022-11-02","H113","중랑구","면목동",11070,1126010100,"서울특별시 중랑구 동일로 685(면목동)",37.591686,127.0798956,11,"서울특별시"
5254,"부자돼소","2022-11-02","H113","중랑구","면목동",11070,1126010100,"서울특별시 중랑구 봉우재로  126 1층",37.5926527,127.0871874,11,"서울특별시"
5255,"시월애도토리","2022-11-02","H113","중랑구","면목동",11070,1126010100,"서울특별시 중랑구 동일로109길 90(면목동)",37.5909644,127.0751827,11,"서울특별시"
4712,"본도시락 회현역점","2022-11-02","H113","중구","회현동1가",11020,1114012100,"서울특별시 중구 소공로 35 남산롯데캐슬아이리스 103호",37.558648,126.9825565,11,"서울특별시"
4713,"본 죽&비빔밥 회현역점","2022-11-02","H113","중구","회현동1가",11020,1114012100,"서울특별시 중구 퇴계로 72 (회현동1가, 리더스뷰남산) 115호",37.5589581,126.9808998,11,"서울특별시"
5499,"지화자","2022-11-02","H113","종로구","청운동",11010,1111010100,"서울특별시 종로구 자하문로 125",37.5877588,126.9688675,11,"서울특별시"
4979,"본 죽&비빔밥 상일2동점","2022-11-02","H113","강동구","상일동",11250,1174010300,"서울특별시 강동구 상일로6길 39 (상일동, 강동타워) 1층",37.549808,127.17535,11,"서울특별시"
4192,"강동 도토리장터","2022-11-02","H113","강동구","상일동",11250,1174010300,"서울특별시 강동구 동남로 888, 강동경희대학교병원",37.5537222378,127.1576253403,11,"서울특별시"
5429,"마나님레시피(계동마나님)","2022-11-02","H113","종로구","안국동",11010,1111014100,"서울특별시 종로구 윤보선길 65",37.5788358,126.9830857,11,"서울특별시"
4519,"상생상회","2022-11-02","H113","종로구","안국동",11010,1111014100,"서울특별시 종로구 율곡로 39, 안국빌딩 신관 1층, 지하1층",37.5762760781,126.9838458845,11,"서울특별시"
4520,"한국사찰음식문화체험관","2022-11-02","H113","종로구","안국동",11010,1111014100,"서울특별시 종로구 율곡로 39, 안국빌딩 신관 2층",37.5761825444,126.9837278673,11,"서울특별시"
5374,"본도시락 신논현역점","2022-11-02","H113","강남구","역삼동",11230,1168010100,"서울특별시 강남구 강남대로110길 15, 지상1층 101호 ",37.5039891,127.0261867,11,"서울특별시"
5375,"본 죽&비빔밥 역삼역점","2022-11-02","H113","강남구","역삼동",11230,1168010100,"서울특별시 강남구 봉은사로30길 78 2층",37.5024922,127.0370297,11,"서울특별시"
5376,"본도시락 차병원사거리점","2022-11-02","H113","강남구","역삼동",11230,1168010100,"서울특별시 강남구 봉은사로34길 9, 1층 101호 ",37.5073259,127.0364247,11,"서울특별시"
5377,"본죽 선릉역점","2022-11-02","H113","강남구","역삼동",11230,1168010100,"서울특별시 강남구 선릉로93길 26 (역삼동) ",37.5048302,127.0464437,11,"서울특별시"
5378,"본 죽&비빔밥 강남점","2022-11-02","H113","강남구","역삼동",11230,1168010100,"서울특별시 강남구 강남대로94길 21 (역삼동)  ",37.4997321,127.0289788,11,"서울특별시"
5379,"본죽 강남세브란스사거리점","2022-11-02","H113","강남구","역삼동",11230,1168010100,"서울특별시 강남구 언주로 314 (역삼동)  강남프라자 108호",37.495892,127.0464782,11,"서울특별시"
5380,"명동칼국수샤브샤브 (역삼디오빌)","2022-11-02","H113","강남구","역삼동",11230,1168010100,"서울특별시 강남구 언주로 427",37.5013935,127.0426534,11,"서울특별시"
5381,"더드림 (본점)","2022-11-02","H113","강남구","역삼동",11230,1168010100,"서울특별시 강남구 언주로85길 13",37.5004802,127.0422466,11,"서울특별시"
5382,"본도시락 역삼초교점","2022-11-02","H113","강남구","역삼동",11230,1168010100,"서울특별시 강남구 역삼로7길 7 (역삼동)   ",37.4944942,127.0330273,11,"서울특별시"
5383,"명동칼국수","2022-11-02","H113","강남구","역삼동",11230,1168010100,"서울특별시 강남구 테헤란로 124",37.4987814,127.0317054,11,"서울특별시"
5384,"본 죽&비빔밥 역삼특허청점","2022-11-02","H113","강남구","역삼동",11230,1168010100,"서울특별시 강남구 테헤란로14길 8 (역삼동, 강남역두산위브센티움) B107호",37.4986564,127.032951,11,"서울특별시"
5385,"오곡당","2022-11-02","H113","강남구","역삼동",11230,1168010100,"서울특별시 강남구 테헤란로19길 19",37.5013432,127.0331539,11,"서울특별시"
5386,"걸신맛집","2022-11-02","H113","강남구","역삼동",11230,1168010100,"서울특별시 강남구 테헤란로6길 29",37.4967327,127.0313021,11,"서울특별시"
5387,"샐러디 (선릉점)","2022-11-02","H113","강남구","역삼동",11230,1168010100,"서울특별시 강남구 선릉로93길 26, 1층(역삼동, 우리빌딩)",37.5048302,127.0464437,11,"서울특별시"
5388,"캘리포니아 피자키친 (역삼 GFC)","2022-11-02","H113","강남구","역삼동",11230,1168010100,"서울특별시 강남구 테헤란로 152 강남파이낸스센터 B1F",37.500028,127.0365071,11,"서울특별시"
5389,"내여자를부탁해 (선릉)","2022-11-02","H113","강남구","역삼동",11230,1168010100,"서울특별시 강남구 테헤란로 322",37.5032366,127.0465997,11,"서울특별시"
5390,"스윗밸런스 (역삼)","2022-11-02","H113","강남구","역삼동",11230,1168010100,"서울특별시 강남구 테헤란로25길 9",37.501304,127.0349752,11,"서울특별시"
5391,"샐러디 (역삼역점)","2022-11-02","H113","강남구","역삼동",11230,1168010100,"서울특별시 강남구 강남대로94길 66, 지상1층(역삼동)",37.5006002,127.0326432,11,"서울특별시"
5392,"어글리스토브 (신논현강남역)","2022-11-02","H113","강남구","역삼동",11230,1168010100,"서울특별시 강남구 강남대로98길 20",37.5007893,127.0282413,11,"서울특별시"
5393,"강가 (역삼)","2022-11-02","H113","강남구","역삼동",11230,1168010100,"서울특별시 강남구 논현로 508",37.5021366,127.0376223,11,"서울특별시"
5394,"아그라 (강남N타워)","2022-11-02","H113","강남구","역삼동",11230,1168010100,"서울특별시 강남구 역삼동 648-9번지외 8필지 지상 강남N타워",37.4998772,127.0323811,11,"서울특별시"
5395,"아그라 (역삼GFC)","2022-11-02","H113","강남구","역삼동",11230,1168010100,"서울특별시 강남구 테헤란로 152, 지하1층 (역삼동, 강남파이낸스센터)",37.500028,127.0365071,11,"서울특별시"
5396,"인도야시장","2022-11-02","H113","강남구","역삼동",11230,1168010100,"서울특별시 강남구 강남대로96길 11-4",37.5001121,127.0280692,11,"서울특별시"
5397,"쏭타이 (역삼)","2022-11-02","H113","강남구","역삼동",11230,1168010100,"서울특별시 강남구 테헤란로39길 51",37.5056903,127.0402799,11,"서울특별시"
5398,"퀴즈노스 (역삼)","2022-11-02","H113","강남구","역삼동",11230,1168010100,"서울특별시 강남구 테헤란로 230 인호 IP 빌딩",37.5018258,127.0415169,11,"서울특별시"
5399,"샐러디 (강남역점)","2022-11-02","H113","강남구","역삼동",11230,1168010100,"서울특별시 강남구 강남대로84길 23, 1층 104호(역삼동, 한라클래식)",37.4971579,127.0304145,11,"서울특별시"
5400,"반미362 (강남점)","2022-11-02","H113","강남구","역삼동",11230,1168010100,"서울특별시 강남구 논현로86길 25 1층",37.5004304,127.0394425,11,"서울특별시"
5401,"로봇김밥 (강남역)","2022-11-02","H113","강남구","역삼동",11230,1168010100,"서울특별시 강남구 테헤란로 101",37.4985981,127.0280435,11,"서울특별시"
4796,"본죽 사당점","2022-11-02","H113","동작구","사당동",11200,1159010700,"서울특별시 동작구 동작대로 43 (사당동)  호진빌딩 1층",37.4804184,126.9813909,11,"서울특별시"
4797,"본 죽&비빔밥 이수점","2022-11-02","H113","동작구","사당동",11200,1159010700,"서울특별시 동작구 동작대로27길 23 (사당동) ",37.4874313,126.9806737,11,"서울특별시"
4798,"본 죽&비빔밥 남성역점","2022-11-02","H113","동작구","사당동",11200,1159010700,"서울특별시 동작구 사당로 215 (사당동, 서림빌딩) 103호",37.4844397,126.9723358,11,"서울특별시"
4799,"국수나무 (남성역)","2022-11-02","H113","동작구","사당동",11200,1159010700,"서울특별시 동작구 사당로 215 서림빌딩",37.4844397,126.9723358,11,"서울특별시"
4800,"샐러디 (사당점)","2022-11-02","H113","동작구","사당동",11200,1159010700,"서울특별시 동작구 동작대로 45, 1층(사당동)",37.4807618,126.9815106,11,"서울특별시"
4021,"서울남부두레생협 사당점","2022-11-02","H113","동작구","사당동",11200,1159010700,"서울특별시 동작구 사당로23바길 9 (사당동)",37.4891265,126.9704171,11,"서울특별시"
4022,"한살림 사당매장","2022-11-02","H113","동작구","사당동",11200,1159010700,"서울특별시 동작구 동작대로29길 69 두성상가 129호",37.4884635,126.9781155,11,"서울특별시"
4023,"구름산추어탕","2022-11-02","H113","동작구","사당동",11200,1159010700,"서울특별시 동작구 사당로30길 158(사당동)",37.4778707,126.9806114,11,"서울특별시"
4024,"가마솥순두부(사당점)","2022-11-02","H113","동작구","사당동",11200,1159010700,"서울특별시 동작구 남부순환로271길 20(사당동)",37.477741,126.9802061,11,"서울특별시"
4025,"쟁반집8292이수점","2022-11-02","H113","동작구","사당동",11200,1159010700,"서울특별시 동작구 동작대로27다길 15(사당동)",37.486881,126.9805907,11,"서울특별시"
4026,"당진동태아구찜탕","2022-11-02","H113","동작구","사당동",11200,1159010700,"서울특별시 동작구 사당로 229-1",37.4836749,126.9734996,11,"서울특별시"
4027,"나주곰탕","2022-11-02","H113","동작구","사당동",11200,1159010700,"서울특별시 동작구 동작대로1길 18",37.47758,126.980344,11,"서울특별시"
4028,"내고향 나주곰탕","2022-11-02","H113","동작구","사당동",11200,1159010700,"서울특별시 동작구 사당로 183",37.4860249,126.9691593,11,"서울특별시"
4029,"우리집(정육식당)","2022-11-02","H113","동작구","사당동",11200,1159010700,"서울특별시 동작구 동작대로29가길 9(사당동)",37.4884816,126.9812588,11,"서울특별시"
4030,"백제갈비","2022-11-02","H113","동작구","사당동",11200,1159010700,"서울특별시 동작구 사당로  231 사당동",37.4836944,126.9736689,11,"서울특별시"
4031,"연안식당","2022-11-02","H113","동작구","사당동",11200,1159010700,"서울특별시 동작구 사당로 256",37.4832477,126.9761852,11,"서울특별시"
4032,"마실","2022-11-02","H113","동작구","사당동",11200,1159010700,"서울특별시 동작구 사당로 215(제1층 제115,116,117,118호 사당동)",37.4844397,126.9723358,11,"서울특별시"
4572,"얼굴있는농부시장(얼장)","2022-11-02","H113","중구","을지로7가",11020,1114014900,"서울특별시 중구 을지로 281",37.5669901954,127.010104598,11,"서울특별시"
4988,"본 죽&비빔밥 한남순천향병원점","2022-11-02","H113","용산구","한남동",11030,1117013100,"서울특별시 용산구 대사관로 63 (한남동, 한남치과) ",37.5334774,127.0052901,11,"서울특별시"
4989,"본도시락 한남점","2022-11-02","H113","용산구","한남동",11030,1117013100,"서울특별시 용산구 독서당로 22 (한남동, 동원베네스트) 107호",37.5302722,127.0077312,11,"서울특별시"
4990,"샐러디 (한남순천향병원점)","2022-11-02","H113","용산구","한남동",11030,1117013100,"서울특별시 용산구 대사관로 63, 1층(한남동)",37.5334774,127.0052901,11,"서울특별시"
4991,"도스타코스 (한남)","2022-11-02","H113","용산구","한남동",11030,1117013100,"서울특별시 용산구 한남대로18길 26",37.534551,127.0086702,11,"서울특별시"
4992,"그릴도하","2022-11-02","H113","용산구","한남동",11030,1117013100,"서울특별시 용산구 이태원로 268 2층",37.538341,127.0018422,11,"서울특별시"
4993,"몽크스부처","2022-11-02","H113","용산구","한남동",11030,1117013100,"서울특별시 용산구 이태원로 228-1",37.5354446,126.9992331,11,"서울특별시"
5514,"서촌가락","2022-11-02","H113","종로구","누하동",11010,1111011000,"서울특별시 종로구 자하문로7길 59",37.5798867,126.9692025,11,"서울특별시"
5515,"소이로움","2022-11-02","H113","종로구","누하동",11010,1111011000,"서울특별시 종로구 필운대로 41",37.5797192,126.9685935,11,"서울특별시"
4560,"에코생협 종로점","2022-11-02","H113","종로구","누하동",11010,1111011000,"서울특별시 종로구 필운대로 23 환경운동연합",37.5781015,126.9690686,11,"서울특별시"
4618,"스시웨이 은평점","2022-11-02","H113","은평구","진관동",11120,1138011400,"서울특별시 은평구 통일로 1010 B111,112호",37.6327293,126.9185551,11,"서울특별시"
4619,"팥동동","2022-11-02","H113","은평구","진관동",11120,1138011400,"서울특별시 은평구 연서로48길 31 1층",37.6380357,126.9383289,11,"서울특별시"
4620,"본 죽&비빔밥 은평성모병원점","2022-11-02","H113","은평구","진관동",11120,1138011400,"서울특별시 은평구 진관1로 21-39 (진관동, 메이플카운티) ",37.6338559,126.9185955,11,"서울특별시"
4621,"본도시락 은평뉴타운점","2022-11-02","H113","은평구","진관동",11120,1138011400,"서울특별시 은평구 진관2로 19 (진관동, 휴먼프라자I) 119호",37.6348561,126.9195893,11,"서울특별시"
4622,"본죽 은평뉴타운2지구점","2022-11-02","H113","은평구","진관동",11120,1138011400,"서울특별시 은평구 진관2로 77 (진관동, 은평뉴타운우물골) 206동 B111호",37.6349949,126.9259094,11,"서울특별시"
4623,"본 죽&비빔밥 은평뉴타운점","2022-11-02","H113","은평구","진관동",11120,1138011400,"서울특별시 은평구 진관3로 11 (진관동, 은평뉴타운힐데스하임) 101동 106호",37.6394662,126.9182649,11,"서울특별시"
4624,"샐러디 (구파발역점)","2022-11-02","H113","은평구","진관동",11120,1138011400,"서울특별시 은평구 통일로 1034, 1층 119호(진관동, 은평 스카이뷰자이)",37.6386925,126.9183894,11,"서울특별시"
4625,"원슈가데이","2022-11-02","H113","은평구","진관동",11120,1138011400,"서울특별시 은평구 연서로 455",37.6366323,126.9335789,11,"서울특별시"
4626,"아그라 (은평)","2022-11-02","H113","은평구","진관동",11120,1138011400,"서울특별시 은평구 통일로 1050, 4층",37.6536328,126.9504596,11,"서울특별시"
3887,"은평두레생협 진관점","2022-11-02","H113","은평구","진관동",11120,1138011400,"서울특별시 은평구 진관3로 67, 909동 104호 (진관파출소 건너편)",37.6409281,126.9194901,11,"서울특별시"
3888,"한살림 구파발매장","2022-11-02","H113","은평구","진관동",11120,1138011400,"서울특별시 은평구 진관3로 15-35 은평뉴타운구파발 제1001동 103호",37.6400515,126.9182224,11,"서울특별시"
3889,"자연드림 은평뉴타운점","2022-11-02","H113","은평구","진관동",11120,1138011400,"서울특별시 은평구 연서로48길 11 은평뉴타운제각말 1층",37.6379641,126.9363811,11,"서울특별시"
3890,"북한산 닭명가","2022-11-02","H113","은평구","진관동",11120,1138011400,"서울특별시 은평구 대서문길 31",37.6562503,126.9489494,11,"서울특별시"
3891,"전주식당","2022-11-02","H113","은평구","진관동",11120,1138011400,"서울특별시 은평구 대서문길 15-7",37.6569708,126.9478966,11,"서울특별시"
3892,"산들애보리밥","2022-11-02","H113","은평구","진관동",11120,1138011400,"서울특별시 은평구 대서문길 43-16",37.6561358,126.9492457,11,"서울특별시"
3893,"평양 초계탕 막국수","2022-11-02","H113","은평구","진관동",11120,1138011400,"서울특별시 은평구 대서문길 9",37.6576844,126.9470932,11,"서울특별시"
3894,"북한산 아구랑 명태랑","2022-11-02","H113","은평구","진관동",11120,1138011400,"서울특별시 은평구 대서문길 13-11",37.6580817,126.9471896,11,"서울특별시"
3895,"옛골토성","2022-11-02","H113","은평구","진관동",11120,1138011400,"서울특별시 은평구 대서문길 45-7",37.6552603,126.9500853,11,"서울특별시"
4110,"칠미식당","2022-11-02","H113","영등포구","여의도동",11190,1156011000,"서울특별시 영등포구 여의나루로 81 (여의도동)",37.5243379,126.9277355,11,"서울특별시"
4111,"대방골","2022-11-02","H113","영등포구","여의도동",11190,1156011000,"서울특별시 영등포구 국회대로 800, 지하1층 114~125(여의도동, 진미파라곤)",37.5309568,126.921384,11,"서울특별시"
4112,"㈜참배나무골 여의도점","2022-11-02","H113","영등포구","여의도동",11190,1156011000,"서울특별시 영등포구 국회대로62길 25 (여의도동)",37.526319,126.9177287,11,"서울특별시"
4113,"파크카페","2022-11-02","H113","영등포구","여의도동",11190,1156011000,"서울특별시 영등포구 여의대로 8 (여의도동,여의도파크센터 2층)",37.5213795,126.9185128,11,"서울특별시"
4114,"왕왕샤브샤브","2022-11-02","H113","영등포구","여의도동",11190,1156011000,"서울특별시 영등포구 국회대로70길 15-1 극동VIP빌딩 2층 201호",37.5296412,126.9203847,11,"서울특별시"
4115,"예성푸드써비스","2022-11-02","H113","영등포구","여의도동",11190,1156011000,"서울특별시 영등포구 국제금융로6길 38 화재보험 1호 (여의도동 35-4)",37.5214127,126.9261031,11,"서울특별시"
4116,"기소야서여의도점","2022-11-02","H113","영등포구","여의도동",11190,1156011000,"서울특별시 영등포구 여의공원로 101, 122동 (여의도동,CCMM빌딩)",37.5292679,126.9249043,11,"서울특별시"
4117,"신동양","2022-11-02","H113","영등포구","여의도동",11190,1156011000,"서울특별시 영등포구 여의나루로 42 여의도종합상가",37.5214745,126.9249709,11,"서울특별시"
4118,"차이홍","2022-11-02","H113","영등포구","여의도동",11190,1156011000,"서울특별시 영등포구 여의나루로 42",37.5214745,126.9249709,11,"서울특별시"
4119,"홍보석","2022-11-02","H113","영등포구","여의도동",11190,1156011000,"서울특별시 영등포구 의사당대로 108 (여의도동)",37.5210151,126.9239933,11,"서울특별시"
4120,"사계정성","2022-11-02","H113","영등포구","여의도동",11190,1156011000,"서울특별시 영등포구 의사당대로 26 더하우스소호 지하1층 103호, 104호 (여의도동)",37.5264201,126.9179422,11,"서울특별시"
4121,"은호식당","2022-11-02","H113","영등포구","여의도동",11190,1156011000,"서울특별시 영등포구 여의대방로65길 6 (여의도동, 센터빌딩 지하 02호)",37.5191915,126.9305467,11,"서울특별시"
4122,"여일정","2022-11-02","H113","영등포구","여의도동",11190,1156011000,"서울특별시 영등포구 국제금융로6길 7(여의도동 34-11) 한영빌딩 지하101호",37.5224132,126.9291092,11,"서울특별시"
4123,"독도참치앤전복","2022-11-02","H113","영등포구","여의도동",11190,1156011000,"서울특별시 영등포구 여의나루로 77-1 (여의도동, 지층102호)",37.5243958,126.9271577,11,"서울특별시"
4124,"창고43VIP점","2022-11-02","H113","영등포구","여의도동",11190,1156011000,"서울특별시 영등포구 국회대로70길 15-1",37.5296412,126.9203847,11,"서울특별시"
4125,"비봉","2022-11-02","H113","영등포구","여의도동",11190,1156011000,"서울특별시 영등포구 국회대로62길 21 동성빌딩 지하1층",37.5267475,126.9172926,11,"서울특별시"
4126,"만나","2022-11-02","H113","영등포구","여의도동",11190,1156011000,"서울특별시 영등포구 국회대로74길 19 (여의도동, 동우국제빌딩지하1층)",37.529836,126.9219885,11,"서울특별시"
4127,"한우집위","2022-11-02","H113","영등포구","여의도동",11190,1156011000,"서울특별시 영등포구 국제금융로 86(여의도동, 롯데캐슬아이비,212,213)",37.5199887,126.9320173,11,"서울특별시"
4128,"향복","2022-11-02","H113","영등포구","여의도동",11190,1156011000,"서울특별시 영등포구 국제금융로8길 11, 대영빌딩 지하1층 B103-1호 (여의도동)",37.5211039,126.9297954,11,"서울특별시"
4129,"호호미역","2022-11-02","H113","영등포구","여의도동",11190,1156011000,"서울특별시 영등포구 의사당대로1길 25(하남빌딩 지하1층 지8호전체, 지9호일부 여의도동)",37.52005,126.9298331,11,"서울특별시"
4130,"은성회관","2022-11-02","H113","영등포구","여의도동",11190,1156011000,"서울특별시 영등포구 여의대방로65길 12 에리트빌딩 2층",37.5196284,126.9300427,11,"서울특별시"
4131,"여의도진진","2022-11-02","H113","영등포구","여의도동",11190,1156011000,"서울특별시 영등포구 국회대로72길 11 (여의도동, 프린스오피스텔 101,102호)",37.5299786,126.9208324,11,"서울특별시"
5243,"본죽 만리점","2022-11-02","H113","중구","만리동2가",11020,1114017400,"서울특별시 중구 만리재로 175 (만리동2가, 서울특별시역센트럴자이) 402동 109호",37.5543383,126.9635901,11,"서울특별시"
4741,"선동보리밥","2022-11-02","H113","성북구","성북동",11080,1129010100,"서울특별시 성북구 성북로 134-4",37.5947162,126.9951446,11,"서울특별시"
4742,"카페58.4","2022-11-02","H113","성북구","성북동",11080,1129010100,"서울특별시 성북구 성북로16길 4-13",37.5936588,127.0011377,11,"서울특별시"
5427,"본도시락 영등포문래점","2022-11-02","H113","영등포구","문래동6가",11190,1156012400,"서울특별시 영등포구 선유로13길 25 (문래동6가, 에이스하이테크시티2) 에이스하이테크시티 2차 105호",37.5189805,126.8862735,11,"서울특별시"
5428,"죠샌드위치 (문래GS홈쇼핑)","2022-11-02","H113","영등포구","문래동6가",11190,1156012400,"서울특별시 영등포구 선유로 71 문래임광그대가",37.5197275,126.8890566,11,"서울특별시"
4665,"두란 (롯데백화점 영등포)","2022-11-02","H113","영등포구","영등포동",11190,1156010100,"서울특별시 영등포구 경인로 846",37.5156284,126.9084491,11,"서울특별시"
4666,"본죽 영등포역점","2022-11-02","H113","영등포구","영등포동",11190,1156010100,"서울특별시 영등포구 영신로19길 30-3 (영등포동)  영등포동 618-283",37.513531,126.9047695,11,"서울특별시"
4667,"아그라 (영등포)","2022-11-02","H113","영등포구","영등포동",11190,1156010100,"서울특별시 영등포구 경인로 846 롯데백화점 영등포점 10층",37.5156284,126.9084491,11,"서울특별시"
3904,"다솥맛집","2022-11-02","H113","영등포구","영등포동",11190,1156010100,"서울특별시 영등포구 경인로 846 롯데백화점 10층",37.5158679,126.9080384,11,"서울특별시"
3905,"함경면옥","2022-11-02","H113","영등포구","영등포동",11190,1156010100,"서울특별시 영등포구 경인로 846 (영등포동, 롯데백화점 지상10층)",37.5158679,126.9080384,11,"서울특별시"
3906,"선비","2022-11-02","H113","영등포구","영등포동",11190,1156010100,"서울특별시 영등포구 경인로 846 (영등포동) 롯데백화점 영등포점 10층 선비(영등포동)",37.5158679,126.9080384,11,"서울특별시"
3907,"국수본가","2022-11-02","H113","영등포구","영등포동",11190,1156010100,"서울특별시 영등포구 경인로 846(롯데백화점영등포점 10층 영등포동)",37.5158679,126.9080384,11,"서울특별시"
4517,"화사랑화로구이","2022-11-02","H113","영등포구","문래동6가",11190,1156012400,"영등포구 선유로9가길 16  광양림빌딩1-3층",37.5186121,126.8882926,11,"서울특별시"
4518,"화.수.목","2022-11-02","H113","영등포구","문래동6가",11190,1156012400,"서울특별시 영등포구 선유로 49(문래동6가, 102호)",37.518255,126.8886485,11,"서울특별시"
5296,"옥루몽 (어린이 대공원점)","2022-11-02","H113","광진구","화양동",11050,1121510700,"서울특별시 광진구 능동로 183",37.5470176,127.073655,11,"서울특별시"
5297,"헬스클럽 샐러드&비빔밥","2022-11-02","H113","광진구","화양동",11050,1121510700,"서울특별시 광진구 광나루로12길 6",37.5473764,127.0677319,11,"서울특별시"
5298,"능동샐러드","2022-11-02","H113","광진구","화양동",11050,1121510700,"서울특별시 광진구 능동로13길 10-7",37.5430167,127.0713281,11,"서울특별시"
4180,"신화식당","2022-11-02","H113","영등포구","영등포동6가",11190,1156010700,"서울특별시 영등포구 영신로38길 18",37.5206511,126.9030364,11,"서울특별시"
4181,"조선화로집","2022-11-02","H113","영등포구","영등포동6가",11190,1156010700,"서울특별시 영등포구 영중로 47",37.5205395,126.9045992,11,"서울특별시"
4182,"장수촌","2022-11-02","H113","영등포구","영등포동6가",11190,1156010700,"서울특별시 영등포구 영신로38길 24(1층 영등포동6가)",37.5206212,126.903693,11,"서울특별시"
4183,"양촌리","2022-11-02","H113","영등포구","영등포동6가",11190,1156010700,"서울특별시 영등포구 영등포로35길 10",37.5207797,126.9042676,11,"서울특별시"
4184,"풍년마을","2022-11-02","H113","영등포구","영등포동6가",11190,1156010700,"서울특별시 영등포구 영신로38길 17",37.520914,126.9032023,11,"서울특별시"
4185,"탁이네코다리조림&추어탕","2022-11-02","H113","영등포구","영등포동6가",11190,1156010700,"서울특별시 영등포구 양산로 178-1",37.5229285,126.9027995,11,"서울특별시"
5048,"육대장 명동점","2022-11-02","H113","중구","충무로1가",11020,1114012400,"서울특별시 중구 명동8나길 45(충무로1가,지상1층)",37.5610795,126.9824103,11,"서울특별시"
5049,"봉추찜닭","2022-11-02","H113","중구","충무로1가",11020,1114012400,"서울특별시 중구 명동8나길 47(충무로1가, 2층)",37.5610605,126.982286,11,"서울특별시"
5050,"원당감자탕","2022-11-02","H113","중구","충무로1가",11020,1114012400,"서울특별시 중구 명동8나길 35 1층",37.5611115,126.9829871,11,"서울특별시"
5051,"현가츠","2022-11-02","H113","중구","충무로1가",11020,1114012400,"서울특별시 중구 명동8나길 45(충무로1가, 지하1층)",37.5610795,126.9824103,11,"서울특별시"
4962,"본죽 뚝섬유원지역점","2022-11-02","H113","광진구","자양동",11050,1121510500,"서울특별시 광진구 능동로 18 (자양동, 이튼타워리버3차)  이튼타워리버3차 124호",37.5331515,127.0680674,11,"서울특별시"
4963,"본 죽&비빔밥 건대점","2022-11-02","H113","광진구","자양동",11050,1121510500,"서울특별시 광진구 능동로 95 (자양동) 2층",37.5395295,127.0701719,11,"서울특별시"
4964,"본죽 자양동점","2022-11-02","H113","광진구","자양동",11050,1121510500,"서울특별시 광진구 뚝섬로 642 (자양동)  ",37.5315121,127.0807711,11,"서울특별시"
4965,"본 죽&비빔밥 구의점","2022-11-02","H113","광진구","자양동",11050,1121510500,"서울특별시 광진구 자양로 113 (자양동, 구의 현대 하이엘) 102호",37.5378361,127.0829226,11,"서울특별시"
4966,"허씨전통중경마라쌍궈(석기시대) 건대점","2022-11-02","H113","광진구","자양동",11050,1121510500,"서울특별시 광진구 동일로18길 50",37.5391775,127.0655256,11,"서울특별시"
4967,"지속","2022-11-02","H113","광진구","자양동",11050,1121510500,"서울특별시 광진구 동일로20길 20",37.5411086,127.0647547,11,"서울특별시"
4188,"한살림 자양매장","2022-11-02","H113","광진구","자양동",11050,1121510500,"서울특별시 광진구 능동로 50 1층",37.535377,127.0691938,11,"서울특별시"
4795,"자하손만두","2022-11-02","H113","종로구","부암동",11010,1111018400,"서울특별시 종로구 백석동길 12",37.5931585,126.966064,11,"서울특별시"
4801,"본죽 송파가락점","2022-11-02","H113","송파구","가락동",11240,1171010700,"서울특별시 송파구 송파대로30길 16 송파가락두산위브센티움 1층 ",37.4946042,127.1184973,11,"서울특별시"
4802,"본죽 개롱역점","2022-11-02","H113","송파구","가락동",11240,1171010700,"서울특별시 송파구 오금로 414 (가락동, 명문빌딩) 104호",37.4972199,127.135928,11,"서울특별시"
4803,"본도시락 가락본동점","2022-11-02","H113","송파구","가락동",11240,1171010700,"서울특별시 송파구 오금로36길 41 (가락동) 1층",37.5001465,127.1234537,11,"서울특별시"
4804,"본죽 오금점","2022-11-02","H113","송파구","가락동",11240,1171010700,"서울특별시 송파구 중대로23길 20 (가락동, 우정에쉐르)  우정에쉐르106호",37.5025696,127.1257778,11,"서울특별시"
4805,"샐러디 (가락점)","2022-11-02","H113","송파구","가락동",11240,1171010700,"서울특별시 송파구 중대로 127, 1층 105호(가락동, 한화오벨리스크)",37.4947829,127.1219218,11,"서울특별시"
4806,"퀴즈노스 (가락)","2022-11-02","H113","송파구","가락동",11240,1171010700,"서울특별시 송파구 송파대로28길 27 102-105",37.4947778,127.1200333,11,"서울특별시"
4033,"한살림 가락매장","2022-11-02","H113","송파구","가락동",11240,1171010700,"서울특별시 송파구 오금로46길 68 1층",37.4926798,127.1311855,11,"서울특별시"
4034,"가락몰 쿠킹스튜디오","2022-11-02","H113","송파구","가락동",11240,1171010700,"서울특별시 송파구 양재대로 932, 가락몰 업무동 4층",37.4931982809,127.1123367268,11,"서울특별시"
4035,"금바위감자탕(현)","2022-11-02","H113","송파구","가락동",11240,1171010700,"서울특별시 송파구 중대로  120 (가락동)",37.4937458,127.1218096,11,"서울특별시"
4871,"본 죽&비빔밥 용산센트럴점","2022-11-02","H113","용산구","한강로2가",11030,1117012500,"서울특별시 용산구 한강대로 95 (한강로2가, 래미안용산 더 센트럴) 지하 148호",37.5290207,126.9668595,11,"서울특별시"
4872,"스윗밸런스 (신용산)","2022-11-02","H113","용산구","한강로2가",11030,1117012500,"서울특별시 용산구 한강대로 95",37.5290207,126.9668595,11,"서울특별시"
4873,"샐러디 (신용산점)","2022-11-02","H113","용산구","한강로2가",11030,1117012500,"서울특별시 용산구 한강대로 95, 제지하1층 제비124호(한강로2가, 래미안용산 더 센트럴)",37.5290207,126.9668595,11,"서울특별시"
5062,"아리랑","2022-11-02","H113","중구","소공동",11020,1114011100,"서울특별시 중구 남대문로7길 23(소공동)",37.563857,126.9805841,11,"서울특별시"
5063,"화로가(조선정육식당)","2022-11-02","H113","중구","소공동",11020,1114011100,"서울특별시 중구 남대문로7길 33(소공동,지상1층 104호)",37.5637709,126.980008,11,"서울특별시"
5068,"나들목 아구찜 곱창전골","2022-11-02","H113","은평구","갈현동",11120,1138010400,"서울특별시 은평구 갈현로36길 17-1 (갈현동) ",37.6218463,126.9187128,11,"서울특별시"
5069,"새만포면옥","2022-11-02","H113","은평구","갈현동",11120,1138010400,"서울특별시 은평구 연서로 171",37.6141584,126.9174876,11,"서울특별시"
5070,"은행나무샤브샤브","2022-11-02","H113","은평구","갈현동",11120,1138010400,"서울특별시 은평구 연서로 183-4",37.6152865,126.9176865,11,"서울특별시"
5071,"본 죽&비빔밥 연신갈현점","2022-11-02","H113","은평구","갈현동",11120,1138010400,"서울특별시 은평구 통일로83길 6-4 (갈현동) 1층",37.6212567,126.9192651,11,"서울특별시"
5072,"샐러디 (연신내점)","2022-11-02","H113","은평구","갈현동",11120,1138010400,"서울특별시 은평구 연서로 211-1, 1층 우측호(갈현동)",37.6175151,126.9190021,11,"서울특별시"
5256,"홍어천국","2022-11-02","H113","중랑구","면목동",11070,1126010100,"서울특별시 중랑구 면목로  421 2층",37.5896513,127.0870656,11,"서울특별시"
5257,"무교동 낙지나라","2022-11-02","H113","중랑구","면목동",11070,1126010100,"서울특별시 중랑구 면목로  320",37.5803823,127.0885826,11,"서울특별시"
5258,"흥부골숯불돼지왕갈비","2022-11-02","H113","중랑구","면목동",11070,1126010100,"서울특별시 중랑구 면목로  341",37.5822718,127.0882426,11,"서울특별시"
5259,"소우가","2022-11-02","H113","중랑구","면목동",11070,1126010100,"서울특별시 중랑구 면목로  285",37.5784956,127.0857979,11,"서울특별시"
5260,"찜집","2022-11-02","H113","중랑구","면목동",11070,1126010100,"서울특별시 중랑구 면목로 287",37.5784608,127.0859568,11,"서울특별시"
5261,"돈다발","2022-11-02","H113","중랑구","면목동",11070,1126010100,"서울특별시 중랑구 면목로37길 17(1층 면목동)",37.5790951,127.0852585,11,"서울특별시"
5262,"소문난 순대국","2022-11-02","H113","중랑구","면목동",11070,1126010100,"서울특별시 중랑구 사가정로50길  68",37.5780474,127.084943,11,"서울특별시"
5263,"산골 소한마리 돼지 정육식당","2022-11-02","H113","중랑구","면목동",11070,1126010100,"서울특별시 중랑구 면목로  417",37.5892555,127.087161,11,"서울특별시"
5264,"본죽 면목역점","2022-11-02","H113","중랑구","면목동",11070,1126010100,"서울특별시 중랑구 겸재로 178 (면목동)  ",37.5880583,127.0873115,11,"서울특별시"
5265,"본도시락 상봉점","2022-11-02","H113","중랑구","면목동",11070,1126010100,"서울특별시 중랑구 동일로 676 (면목동, 삼경빌딩) ",37.5906626,127.0803838,11,"서울특별시"
5266,"본도시락 중곡점","2022-11-02","H113","중랑구","면목동",11070,1126010100,"서울특별시 중랑구 면목로 231-1 (면목동) 1층",37.5737636,127.0844407,11,"서울특별시"
5267,"본죽 사가정역점","2022-11-02","H113","중랑구","면목동",11070,1126010100,"서울특별시 중랑구 사가정로 407 (면목동)  ",37.5806266,127.0898817,11,"서울특별시"
5082,"본죽 압구정역점","2022-11-02","H113","강남구","압구정동",11230,1168011000,"서울특별시 강남구 압구정로 151  신현대아파트 상가 104호",37.5257827,127.0247608,11,"서울특별시"
4282,"한살림 압구정매장","2022-11-02","H113","강남구","압구정동",11230,1168011000,"서울특별시 강남구 압구정로 309",37.5307883,127.0352178,11,"서울특별시"
5358,"본 죽&비빔밥 숭실대역점","2022-11-02","H113","동작구","상도동",11200,1159010200,"서울특별시 동작구 상도로 351 (상도동) 1층",37.4973537,126.9530692,11,"서울특별시"
5359,"본 죽&비빔밥 상도점","2022-11-02","H113","동작구","상도동",11200,1159010200,"서울특별시 동작구 양녕로26길 6 (상도동) 1층",37.498084,126.9440003,11,"서울특별시"
5360,"본 죽&비빔밥 장승배기역점","2022-11-02","H113","동작구","상도동",11200,1159010200,"서울특별시 동작구 장승배기로11가길 11 (상도동, 상도파크자이) 1층",37.5058179,126.9383041,11,"서울특별시"
4669,"샐러디 (상왕십리점)","2022-11-02","H113","성동구","하왕십리동",11040,1120010200,"서울특별시 성동구 왕십리로 410, 센트라스 J동 1층 127호(상왕십리동)",37.5664234,127.0252047,11,"서울특별시"
4670,"반미362 (센트라스점)","2022-11-02","H113","성동구","하왕십리동",11040,1120010200,"서울특별시 성동구 왕십리로 410 센트라스상가 B동 104호",37.5663806,127.0254769,11,"서울특별시"
4489,"서울남부두레생협 상도점","2022-11-02","H113","동작구","상도동",11200,1159010200,"서울특별시 동작구 상도로31길 19 (상도동)",37.5060032,126.9439001,11,"서울특별시"
4490,"한살림 상도매장","2022-11-02","H113","동작구","상도동",11200,1159010200,"서울특별시 동작구 상도로37길 79 1층",37.4974928,126.9535083,11,"서울특별시"
4491,"유가네한우곰탕","2022-11-02","H113","동작구","상도동",11200,1159010200,"서울특별시 동작구 국사봉1길 18",37.4987658,126.9296619,11,"서울특별시"
4492,"시래불고기 화풍정","2022-11-02","H113","동작구","상도동",11200,1159010200,"서울특별시 동작구 상도로 102(상도동)",37.4999382,126.93176,11,"서울특별시"
4493,"오리미가","2022-11-02","H113","동작구","상도동",11200,1159010200,"서울특별시 동작구 상도로15길 42",37.5023479,126.9341912,11,"서울특별시"
4494,"다채샤브 장승배기역점","2022-11-02","H113","동작구","상도동",11200,1159010200,"서울특별시 동작구 상도로 166(상도동)",37.5038128,126.937767,11,"서울특별시"
4495,"농실가","2022-11-02","H113","동작구","상도동",11200,1159010200,"서울특별시 동작구 상도로 142(2층 상도동)",37.5024314,126.9354568,11,"서울특별시"
4496,"두부마을","2022-11-02","H113","동작구","상도동",11200,1159010200,"서울특별시 동작구 상도로 210(상도동)",37.5050501,126.9421039,11,"서울특별시"
4497,"석춘해물칼국수","2022-11-02","H113","동작구","상도동",11200,1159010200,"서울특별시 동작구 장승배기로10길 21",37.5048352,126.9402521,11,"서울특별시"
4498,"지호한방삼계탕 동작점","2022-11-02","H113","동작구","상도동",11200,1159010200,"서울특별시 동작구 상도로26길 18(상도동)",37.5038313,126.9388299,11,"서울특별시"
4499,"할머니추어탕","2022-11-02","H113","동작구","상도동",11200,1159010200,"서울특별시 동작구 상도로 133",37.5024049,126.9345184,11,"서울특별시"
4500,"용마골","2022-11-02","H113","동작구","상도동",11200,1159010200,"서울특별시 동작구 등용로 17(상도동)",37.5054147,126.9365567,11,"서울특별시"
4501,"남도추어탕","2022-11-02","H113","동작구","상도동",11200,1159010200,"서울특별시 동작구 성대로1길 10",37.5005293,126.9333576,11,"서울특별시"
4502,"세종대왕숯불갈비(상도동)","2022-11-02","H113","동작구","상도동",11200,1159010200,"서울특별시 동작구 등용로 2(상도동)",37.5046247,126.9378799,11,"서울특별시"
4503,"이필배의 진짜루 명태촌","2022-11-02","H113","동작구","상도동",11200,1159010200,"서울특별시 동작구 상도로62길 45(상도동)",37.4962181,126.9530285,11,"서울특별시"
4504,"산골안","2022-11-02","H113","동작구","상도동",11200,1159010200,"서울특별시 동작구 상도로26길 6",37.5038798,126.9382071,11,"서울특별시"
4831,"본죽 세브란스병원점","2022-11-02","H113","서대문구","신촌동",11130,1141011400,"서울특별시 서대문구  연세로 50-1  세브란스병원 3층",37.5626444,126.9400902,11,"서울특별시"
4832,"본 죽&비빔밥 연세암병원점","2022-11-02","H113","서대문구","신촌동",11130,1141011400,"서울특별시 서대문구 연세로 50-1, 지하2층 (신촌동,연세의료원건물) ",37.5626444,126.9400902,11,"서울특별시"
4833,"로봇김밥 (세브란스)","2022-11-02","H113","서대문구","신촌동",11130,1141011400,"서울특별시 서대문구 연세로 50-1 연세의료원",37.5626444,126.9400902,11,"서울특별시"
5527,"우래옥","2022-11-02","H113","중구","주교동",11020,1114015200,"서울특별시 중구 창경궁로 62-29(주교동)",37.5682201,126.9987268,11,"서울특별시"
4664,"본죽 보문역점","2022-11-02","H113","성북구","보문동1가",11080,1129013000,"서울특별시 성북구 보문로 116 (보문동1가)",37.5855772,127.0194862,11,"서울특별시"
3866,"통나무집","2022-11-02","H113","은평구","불광동",11120,1138010300,"서울특별시 은평구 진흥로19길 8",37.611455,126.9412893,11,"서울특별시"
3867,"원조 불광 순대국","2022-11-02","H113","은평구","불광동",11120,1138010300,"서울특별시 은평구 진흥로15길 24-1 (불광동) ",37.6115141,126.9318537,11,"서울특별시"
3868,"착한낙지","2022-11-02","H113","은평구","불광동",11120,1138010300,"서울특별시 은평구 연서로 322",37.6239802,126.9284128,11,"서울특별시"
3869,"영심이네 오리불고기","2022-11-02","H113","은평구","불광동",11120,1138010300,"서울특별시 은평구 진흥로15길 7 (불광동) ",37.6100547,126.9318746,11,"서울특별시"
3870,"한우리","2022-11-02","H113","은평구","불광동",11120,1138010300,"서울특별시 은평구 불광로 40-7 (불광동) ",37.6107362,126.930517,11,"서울특별시"
3871,"통나무집","2022-11-02","H113","은평구","불광동",11120,1138010300,"서울특별시 은평구 진흥로19길 8",37.611455,126.9412893,11,"서울특별시"
3872,"장위동 유성집 은평점","2022-11-02","H113","은평구","불광동",11120,1138010300,"서울특별시 은평구 진흥로15길 5",37.6098753,126.9319677,11,"서울특별시"
3873,"불광설주식회사","2022-11-02","H113","은평구","불광동",11120,1138010300,"서울특별시 은평구 진흥로19길 6",37.6113657,126.9413812,11,"서울특별시"
3874,"횟집 산이네","2022-11-02","H113","은평구","불광동",11120,1138010300,"서울특별시 은평구 통일로 708-8 (불광동) ",37.6098015,126.9317762,11,"서울특별시"
3875,"명가쌈밥","2022-11-02","H113","은평구","불광동",11120,1138010300,"서울특별시 은평구 불광로 40-2",37.6106533,126.9303256,11,"서울특별시"
4584,"본죽 불광점","2022-11-02","H113","은평구","불광동",11120,1138010300,"서울특별시 은평구 불광로 40 (불광동)  ",37.6110767,126.9303082,11,"서울특별시"
4585,"본 죽&비빔밥 연신내점","2022-11-02","H113","은평구","불광동",11120,1138010300,"서울특별시 은평구 연서로 252 (불광동) ",37.6194625,126.9230744,11,"서울특별시"
4586,"본도시락 북한산힐스테이트7차점","2022-11-02","H113","은평구","불광동",11120,1138010300,"서울특별시 은평구 통일로 796 북한산 힐스테이트 7차 ",37.6162729,126.9260428,11,"서울특별시"
5067,"본도시락 동국대점","2022-11-02","H113","중구","묵정동",11020,1114013600,"서울특별시 중구 퇴계로50가길 6-9 (묵정동)",37.5611708,127.0015377,11,"서울특별시"
4105,"봉래헌","2022-11-02","H113","강서구","외발산동",11160,1150010700,"서울특별시 강서구 방화대로 94(1층 외발산동, 1동 메이필드호텔)",37.5475723,126.8187978,11,"서울특별시"
5220,"본 죽&비빔밥 숙대입구역점","2022-11-02","H113","용산구","청파동2가",11030,1117011000,"서울특별시 용산구 청파로47길 21 (청파동2가) ",37.5446923,126.969212,11,"서울특별시"
5221,"퀴즈노스 (숙대입구)","2022-11-02","H113","용산구","청파동2가",11030,1117011000,"서울특별시 용산구 청파로 276",37.5442929,126.9709376,11,"서울특별시"
5222,"샐러디 (숙명여대점)","2022-11-02","H113","용산구","청파동2가",11030,1117011000,"서울특별시 용산구 청파로47길 67, 1층 103호(청파동2가)",37.5448316,126.9665961,11,"서울특별시"
5532,"로봇김밥 (합정)","2022-11-02","H113","마포구","합정동",11140,1144012200,"서울특별시 마포구 월드컵로3길 14 지층115 (마포한강 2차 푸르지오)",37.5513458,126.9114141,11,"서울특별시"
5533,"라뽀즈","2022-11-02","H113","마포구","합정동",11140,1144012200,"서울특별시 마포구 양화로6길 60",37.5485537,126.9174073,11,"서울특별시"
5534,"무대륙","2022-11-02","H113","마포구","합정동",11140,1144012200,"서울특별시 마포구 토정로5길 12",37.5459774,126.918463,11,"서울특별시"
5535,"크리스피프레시 (합정)","2022-11-02","H113","마포구","합정동",11140,1144012200,"서울특별시 마포구 월드컵로3길 14 딜라이트스퀘어 2차 지하1층",37.5513458,126.9114141,11,"서울특별시"
5536,"셰발레리","2022-11-02","H113","마포구","합정동",11140,1144012200,"서울특별시 마포구 포은로 52",37.5520706,126.9069672,11,"서울특별시"
5537,"호수꼬치 (홍대합정점)","2022-11-02","H113","마포구","합정동",11140,1144012200,"서울특별시 마포구 독막로 55 1층",37.5481663,126.919382,11,"서울특별시"
5538,"밀토니아","2022-11-02","H113","마포구","합정동",11140,1144012200,"서울특별시 마포구 월드컵로7길 73",37.5524518,126.9082405,11,"서울특별시"
5144,"온더보더 (타임스퀘어)","2022-11-02","H113","영등포구","영등포동4가",11190,1156010500,"서울특별시 영등포구 영중로 15",37.5172425,126.9037198,11,"서울특별시"
5145,"스무디킹 (영등포타임스퀘어)","2022-11-02","H113","영등포구","영등포동4가",11190,1156010500,"서울특별시 영등포구 영중로 15 타임스퀘어 4층",37.5172425,126.9037198,11,"서울특별시"
4694,"본도시락 충무로점","2022-11-02","H113","중구","충무로3가",11020,1114015800,"서울특별시 중구 수표로2길 7 (충무로3가)",37.5621978,126.9909182,11,"서울특별시"
4316,"(주)한일관 영등포타임스퀘어점","2022-11-02","H113","영등포구","영등포동4가",11190,1156010500,"서울특별시 영등포구 영중로 15 414호",37.5172425,126.9037198,11,"서울특별시"
4317,"딘타이펑타임스퀘어점","2022-11-02","H113","영등포구","영등포동4가",11190,1156010500,"서울특별시 영등포구 영중로 15, 4층 (영등포동4가, 경방타임스퀘어 단지)",37.5172425,126.9037198,11,"서울특별시"
4318,"놀부부대찌개앤철판구이 영등포타임스퀘어점","2022-11-02","H113","영등포구","영등포동4가",11190,1156010500,"서울특별시 영등포구 영중로 15 (영등포동4가, 경방타임스퀘어 단지 지하1층 143호 )",37.5172425,126.9037198,11,"서울특별시"
4319,"삼화갈비","2022-11-02","H113","영등포구","영등포동4가",11190,1156010500,"서울특별시 영등포구 영신로34길 42(영등포동4가,1~2층)",37.5184412,126.9047204,11,"서울특별시"
4320,"완산골","2022-11-02","H113","영등포구","영등포동4가",11190,1156010500,"서울특별시 영등포구 영중로3길 12",37.5168402,126.9050266,11,"서울특별시"
5346,"효면옥","2022-11-02","H113","은평구","신사동",11120,1138010900,"서울특별시 은평구 증산로 429",37.5946573,126.9142372,11,"서울특별시"
5347,"본 죽&비빔밥 은평신사점","2022-11-02","H113","은평구","신사동",11120,1138010900,"서울특별시 은평구 은평로 23 (신사동) 1층",37.598172,126.9103925,11,"서울특별시"
4895,"남도한식(정든님)","2022-11-02","H113","중구","을지로2가",11020,1114010500,"서울특별시 중구 을지로  78 2층",37.5658456,126.986545,11,"서울특별시"
5109,"본죽 염창동점","2022-11-02","H113","강서구","염창동",11160,1150010100,"서울특별시 강서구 양천로 731 동아3차아파트 ",37.5496413,126.8775674,11,"서울특별시"
5110,"본 죽&비빔밥 등촌공항대로점","2022-11-02","H113","강서구","염창동",11160,1150010100,"서울특별시 강서구 공항대로61길 14 (염창동) 1층",37.5516174,126.8656095,11,"서울특별시"
5111,"샐러디 (등촌역점)","2022-11-02","H113","강서구","염창동",11160,1150010100,"서울특별시 강서구 공항대로 557, 101동 상가 104호(염창동, 등촌제이스카이 상가)",37.5498742,126.8679785,11,"서울특별시"
4686,"엔와이84.8","2022-11-02","H113","용산구","남영동",11030,1117010500,"서울특별시 용산구 한강대로 268",37.5422121,126.9730823,11,"서울특별시"
4687,"카페 시바","2022-11-02","H113","용산구","남영동",11030,1117010500,"서울특별시 용산구 한강대로 276-1",37.5429577,126.9728231,11,"서울특별시"
4309,"임진강민물장어","2022-11-02","H113","강서구","염창동",11160,1150010100,"서울특별시 강서구 양천로 723 1층",37.5495308,126.8763695,11,"서울특별시"
4470,"알오삼계탕","2022-11-02","H113","은평구","신사동",11120,1138010900,"서울특별시 은평구 증산로17길 7 (신사동) ",37.5902995,126.9126247,11,"서울특별시"
4471,"봉희설렁탕","2022-11-02","H113","은평구","신사동",11120,1138010900,"서울특별시 은평구 증산로 413 (신사동) ",37.5931492,126.9138628,11,"서울특별시"
5083,"본도시락 공릉점","2022-11-02","H113","노원구","공릉동",11110,1135010300,"서울특별시 노원구 공릉로46길 18 (공릉동, 윤탁노블레스) 103호",37.6270426,127.0798791,11,"서울특별시"
5084,"본 죽&비빔밥 공릉원자력병원점","2022-11-02","H113","노원구","공릉동",11110,1135010300,"서울특별시 노원구 공릉로46길 6 (공릉동, 현대프라자) 101호",37.6269324,127.0796199,11,"서울특별시"
5085,"본 죽&비빔밥 화랑대역점","2022-11-02","H113","노원구","공릉동",11110,1135010300,"서울특별시 노원구 노원로1길 67 (공릉동, 대덕프라자) 104호",37.6208368,127.0836598,11,"서울특별시"
5086,"본 죽&비빔밥 태릉입구역점","2022-11-02","H113","노원구","공릉동",11110,1135010300,"서울특별시 노원구 동일로 992 (공릉동, 대화빌딩) 1층",37.6188099,127.0756195,11,"서울특별시"
5087,"본죽 공릉점","2022-11-02","H113","노원구","공릉동",11110,1135010300,"서울특별시 노원구 섬밭로 134 (공릉동, 풍림아파트) B상가 114동",37.6283913,127.0691793,11,"서울특별시"
5088,"샐러디 (태릉입구역점)","2022-11-02","H113","노원구","공릉동",11110,1135010300,"서울특별시 노원구 화랑로 421, 1동 104호(공릉동)",37.6175204,127.0743441,11,"서울특별시"
5089,"샐러디 (공릉점)","2022-11-02","H113","노원구","공릉동",11110,1135010300,"서울특별시 노원구 공릉로 203 , 1층 102호(공릉동)",37.6275149,127.0780607,11,"서울특별시"
5090,"퀴즈노스 (서울여대)","2022-11-02","H113","노원구","공릉동",11110,1135010300,"서울특별시 노원구 화랑로 621 101호",37.6278439,127.0902578,11,"서울특별시"
4654,"앞으로의빵집","2022-11-02","H113","종로구","익선동",11010,1111013300,"서울특별시 종로구 삼일대로32가길 29-1",37.5746907,126.9893459,11,"서울특별시"
5402,"본도시락 위례중앙점","2022-11-02","H113","송파구","장지동",11240,1171010900,"서울특별시 송파구 위례광장로 120 (장지동, 위례중앙푸르지오1단지) B05-1",37.4747889,127.1416131,11,"서울특별시"
5403,"본죽 위례중앙점","2022-11-02","H113","송파구","장지동",11240,1171010900,"서울특별시 송파구 위례광장로 136 (장지동, 위례아이파크) 위례아이파크3동 C137호",37.4754524,127.1411532,11,"서울특별시"
5404,"본 죽&비빔밥 장지파인타운점","2022-11-02","H113","송파구","장지동",11240,1171010900,"서울특별시 송파구 충민로2길 24 (장지동, 리더스프라자) 101호",37.4776394,127.1272781,11,"서울특별시"
5405,"퀴즈노스 (위례)","2022-11-02","H113","송파구","장지동",11240,1171010900,"서울특별시 송파구 위례광장로 136",37.4764772,127.1420686,11,"서울특별시"
4678,"본도시락 성수점","2022-11-02","H113","성동구","성수동2가",11040,1120011500,"서울특별시 성동구 성수일로10길 26 (성수동2가, 하우스디 세종타워) 상가동 109호",37.546583,127.052951,11,"서울특별시"
4679,"본 죽&비빔밥 성수힐스테이트점","2022-11-02","H113","성동구","성수동2가",11040,1120011500,"서울특별시 성동구 성수일로4길 37 (성수동2가) 1층",37.5421499,127.0529505,11,"서울특별시"
4680,"본죽 성수역점","2022-11-02","H113","성동구","성수동2가",11040,1120011500,"서울특별시 성동구 아차산로7길 15 (성수동2가) 1층",37.5466234,127.054614,11,"서울특별시"
4681,"코스모스상점","2022-11-02","H113","성동구","성수동2가",11040,1120011500,"서울특별시 성동구 성수이로7길 27 서울특별시숲코오롱디지탈타워",37.541577,127.0534217,11,"서울특별시"
4682,"샐러디 (성수점)","2022-11-02","H113","성동구","성수동2가",11040,1120011500,"서울특별시 성동구 성수일로10길 26, 상가동 1층 104호(성수동2가, 하우스디 세종타워)",37.546583,127.052951,11,"서울특별시"
4683,"마리오네","2022-11-02","H113","성동구","성수동2가",11040,1120011500,"서울특별시 성동구 성수이로12길 15 1층",37.5396855,127.0568855,11,"서울특별시"
4684,"칙피스 (성수)","2022-11-02","H113","성동구","성수동2가",11040,1120011500,"서울특별시 성동구 연무장5길 9-16 블루스톤타워 1층 101호",37.5443642,127.0526735,11,"서울특별시"
4685,"다포케","2022-11-02","H113","성동구","성수동2가",11040,1120011500,"서울특별시 성동구 연무장길 41",37.5430317,127.0539238,11,"서울특별시"
3908,"정 참치","2022-11-02","H113","성동구","성수동2가",11040,1120011500,"서울특별시 성동구 성수일로8길 39 202호 (성수동2가)",37.5457507,127.0547835,11,"서울특별시"
4578,"어반가든","2022-11-02","H113","중구","정동",11020,1114016700,"서울특별시 중구 정동길 12-15(정동,1층 2층)",37.5673976,126.9691143,11,"서울특별시"
4579,"컨퍼런스하우스달개비정동점","2022-11-02","H113","중구","정동",11020,1114016700,"서울특별시 중구 세종대로19길 16(정동, 지하1층)",37.5667926,126.9762087,11,"서울특별시"
4580,"라그린","2022-11-02","H113","중구","정동",11020,1114016700,"서울특별시 중구 정동길 26 이화여고100주년기념관",37.5660272,126.9710801,11,"서울특별시"
4931,"평창우선생","2022-11-02","H113","중구","의주로1가",11020,1114016900,"서울특별시 중구 통일로 102(의주로1가,지상1층 바비엥I 101호)",37.5643288,126.9685114,11,"서울특별시"
5081,"본 죽&비빔밥 대흥역점","2022-11-02","H113","마포구","대흥동",11140,1144010800,"서울특별시 마포구 대흥로 79 (대흥동, 동양엔파트) 상가동 108호",37.5474902,126.9412328,11,"서울특별시"
5113,"두부공작소 신사직영점","2022-11-02","H113","강남구","신사동",11230,1168010700,"서울특별시 강남구 강남대로160길 21",37.5198006,127.020506,11,"서울특별시"
5114,"본죽 압구정로데오점","2022-11-02","H113","강남구","신사동",11230,1168010700,"서울특별시 강남구 압구정로 330 (신사동)  대봉상가 1층 105호",37.5282763,127.03766,11,"서울특별시"
5115,"본 죽&비빔밥 신사점","2022-11-02","H113","강남구","신사동",11230,1168010700,"서울특별시 강남구 도산대로11길 5 (신사동) 2층",37.5178601,127.0222847,11,"서울특별시"
5116,"샐러디 (압구정점)","2022-11-02","H113","강남구","신사동",11230,1168010700,"서울특별시 강남구 압구정로 144, 1층(신사동, 선덕빌딩)",37.5249795,127.0246015,11,"서울특별시"
5117,"샐러디 (신사점)","2022-11-02","H113","강남구","신사동",11230,1168010700,"서울특별시 강남구 강남대로156길 24, 1층 104호(신사동)",37.5183909,127.0211013,11,"서울특별시"
5118,"마치래빗 (신사)","2022-11-02","H113","강남구","신사동",11230,1168010700,"서울특별시 강남구 논현로153길 45",37.5203206,127.0245491,11,"서울특별시"
5119,"칙피스","2022-11-02","H113","강남구","신사동",11230,1168010700,"서울특별시 강남구 강남대로152길 69",37.5191329,127.0247455,11,"서울특별시"
5120,"WHAT A CHEF (왓어쉐프)","2022-11-02","H113","강남구","신사동",11230,1168010700,"서울특별시 강남구 선릉로157길 23-3",37.5259988,127.0379268,11,"서울특별시"
5121,"마히나 비건 테이블","2022-11-02","H113","강남구","신사동",11230,1168010700,"서울특별시 강남구 논현로175길 75 2층",37.5236602,127.0230575,11,"서울특별시"
5122,"죠샌드위치 (압구정)","2022-11-02","H113","강남구","신사동",11230,1168010700,"서울특별시 강남구 논현로159길 11",37.5229106,127.0272191,11,"서울특별시"
5123,"퀴즈노스 (압구정)","2022-11-02","H113","강남구","신사동",11230,1168010700,"서울특별시 강남구 압구정로 144 한주빌딩",37.5249795,127.0246015,11,"서울특별시"
5137,"본도시락 중계점","2022-11-02","H113","노원구","중계동",11110,1135010600,"서울특별시 노원구 덕릉로 589 (중계동) 101호",37.6509194,127.0717652,11,"서울특별시"
5138,"본죽 상계역점","2022-11-02","H113","노원구","중계동",11110,1135010600,"서울특별시 노원구 덕릉로 699 (중계동, 우암에이스타워)  우암에이스타워 106호",37.6601373,127.0752433,11,"서울특별시"
5139,"본죽 중계브라운스톤점","2022-11-02","H113","노원구","중계동",11110,1135010600,"서울특별시 노원구 동일로203가길 29 (중계동, 브라운스톤중계)  브라운스톤 115호",37.6398948,127.0642882,11,"서울특별시"
5140,"본죽 중계은행사거리점","2022-11-02","H113","노원구","중계동",11110,1135010600,"서울특별시 노원구 한글비석로 245 (중계동)  두타빌A동 110",37.6495138,127.0763496,11,"서울특별시"
5141,"까르보네 (중계은행사거리점)","2022-11-02","H113","노원구","중계동",11110,1135010600,"서울특별시 노원구 한글비석로 273",37.6521697,127.0772346,11,"서울특별시"
5143,"퀴즈노스 (중계)","2022-11-02","H113","노원구","중계동",11110,1135010600,"서울특별시 노원구 노원로 330 롯데마트중계점 B1",37.6467953,127.070944,11,"서울특별시"
5142,"닐리 (중계점)","2022-11-02","H113","노원구","중계동",11110,1135010600,"서울특별시 노원구 중계로 205 동진빌딩",37.6497721,127.0782729,11,"서울특별시"
4615,"본 죽&비빔밥 송정역점","2022-11-02","H113","강서구","공항동",11160,1150010800,"서울특별시 강서구 공항대로 36 (공항동) 101호",37.5610198,126.8111379,11,"서울특별시"
4616,"로봇김밥 (김포공항)","2022-11-02","H113","강서구","공항동",11160,1150010800,"서울특별시 강서구 하늘길 112 국내선청사 4층",37.5595772,126.8021288,11,"서울특별시"
3883,"공항칼국수","2022-11-02","H113","강서구","공항동",11160,1150010800,"서울특별시 강서구 공항대로 18-1(공항동, 이스카이오피스텔)",37.5609455,126.8091244,11,"서울특별시"
3884,"24시가마솥설렁탕","2022-11-02","H113","강서구","공항동",11160,1150010800,"서울특별시 강서구 공항대로 34(1층 공항동, 청보빌딩)",37.5610091,126.8109683,11,"서울특별시"
4312,"한살림 하계매장","2022-11-02","H113","노원구","중계동",11110,1135010600,"서울특별시 노원구 섬밭로 258 건영옴니백화점 지하 1층",37.6389345,127.0647648,11,"서울특별시"
4313,"한살림 중계매장","2022-11-02","H113","노원구","중계동",11110,1135010600,"서울특별시 노원구 한글비석로15길 15 1층",37.657454,127.0743246,11,"서울특별시"
4314,"자연드림 노원중계점","2022-11-02","H113","노원구","중계동",11110,1135010600,"서울특별시 노원구 한글비석로15길 19 지영빌딩 1층",37.6573093,127.0742584,11,"서울특별시"
4315,"마들장","2022-11-02","H113","노원구","중계동",11110,1135010600,"서울특별시 노원구 중계동 508, 등나무 근린공원",37.6406586854,127.0671405133,11,"서울특별시"
4720,"강원도 흑염소","2022-11-02","H113","중랑구","상봉동",11070,1126010200,"서울특별시 중랑구 망우로55길  32 101호",37.5988582,127.093861,11,"서울특별시"
4721,"본죽 망우역점","2022-11-02","H113","중랑구","상봉동",11070,1126010200,"서울특별시 중랑구 망우로 346 한일써너스빌 101동 113호 ",37.5970739,127.0914819,11,"서울특별시"
4722,"본죽 동부시장점","2022-11-02","H113","중랑구","상봉동",11070,1126010200,"서울특별시 중랑구 망우로32길 20 (상봉동)  107호",37.593002,127.0764937,11,"서울특별시"
4723,"샐러디 (상봉역점)","2022-11-02","H113","중랑구","상봉동",11070,1126010200,"서울특별시 중랑구 망우로 316, 1층 105호(상봉동, 이지팰리스)",37.596521,127.0875592,11,"서울특별시"
4724,"어글리스토브 (상봉)","2022-11-02","H113","중랑구","상봉동",11070,1126010200,"서울특별시 중랑구 상봉로 131 1층",37.5976214,127.0923812,11,"서울특별시"
5182,"본도시락 서소문점","2022-11-02","H113","서대문구","충정로3가",11130,1141010200,"서울특별시 서대문구 서소문로 27 (충정로3가, 충정리시온) 109호",37.5602149,126.964833,11,"서울특별시"
5192,"명동강남면옥","2022-11-02","H113","중구","명동1가",11020,1114012600,"서울특별시 중구 명동7길 8(5층 명동1가)",37.5642162,126.9846201,11,"서울특별시"
5193,"쿠우쿠우명동본점","2022-11-02","H113","중구","명동1가",11020,1114012600,"서울특별시 중구 명동길 55(4층 명동1가)",37.5641418,126.9854022,11,"서울특별시"
5194,"내림손삼계탕","2022-11-02","H113","중구","명동1가",11020,1114012600,"서울특별시 중구 명동9길 16(명동1가,지하1층)",37.5646268,126.9852258,11,"서울특별시"
5195,"명동미성옥","2022-11-02","H113","중구","명동1가",11020,1114012600,"서울특별시 중구 명동길 25-11(명동1가)",37.5641742,126.9839302,11,"서울특별시"
5196,"본 죽&비빔밥 명동2호점","2022-11-02","H113","중구","명동1가",11020,1114012600,"서울특별시 중구 명동9길 10, 2층 (명동1가)",37.5643458,126.9850259,11,"서울특별시"
4673,"본죽 마천동점","2022-11-02","H113","송파구","거여동",11240,1171011300,"서울특별시 송파구 마천로 264 (거여동, 흥일빌딩) ",37.4980511,127.146142,11,"서울특별시"
4674,"본죽 거여동점","2022-11-02","H113","송파구","거여동",11240,1171011300,"서울특별시 송파구 오금로54길 38 (거여동, 거여팰리스) 1층 102호 ",37.4927453,127.1438502,11,"서울특별시"
4675,"샐러디 (마천역점)","2022-11-02","H113","송파구","거여동",11240,1171011300,"서울특별시 송파구 오금로 551, 근린생활시설 208동 108호(거여동, e편한세상 송파 파크센트럴)",37.4939907,127.1503611,11,"서울특별시"
4715,"다사랑 회센터","2022-11-02","H113","중랑구","상봉동",11070,1126010200,"서울특별시 중랑구 중랑천로12길 36(1층 상봉동)",37.5926388,127.0749921,11,"서울특별시"
4716,"옛가칼국수","2022-11-02","H113","중랑구","상봉동",11070,1126010200,"서울특별시 중랑구 중랑천로10길 39(상봉동)",37.5921354,127.0751342,11,"서울특별시"
4717,"옛터식당","2022-11-02","H113","중랑구","상봉동",11070,1126010200,"서울특별시 중랑구 중랑천로10길 63-3(상봉동)",37.5926137,127.0763852,11,"서울특별시"
4718,"오대가마솥순대국","2022-11-02","H113","중랑구","상봉동",11070,1126010200,"서울특별시 중랑구 봉우재로  131",37.5931146,127.0874988,11,"서울특별시"
4719,"남한강물고기","2022-11-02","H113","중랑구","상봉동",11070,1126010200,"서울특별시 중랑구 동일로114길 43(상봉동)",37.5938787,127.0826203,11,"서울특별시"
4339,"시골칼국수","2022-11-02","H113","서대문구","충정로3가",11130,1141010200,"서울특별시 서대문구 충정로5길 2(충정로3가, 2층)",37.5627224,126.9641079,11,"서울특별시"
5361,"본 죽&비빔밥 대치롯데점","2022-11-02","H113","강남구","대치동",11230,1168010600,"서울특별시 강남구 도곡로 405 (대치동, 삼환 아르누보2) A동 104호",37.497391,127.0547261,11,"서울특별시"
5362,"본 죽&비빔밥 선릉점","2022-11-02","H113","강남구","대치동",11230,1168010600,"서울특별시 강남구 선릉로 424 ",37.5029132,127.050076,11,"서울특별시"
5363,"본죽 대치은마점","2022-11-02","H113","강남구","대치동",11230,1168010600,"서울특별시 강남구 도곡로 516 삼성상가 ",37.4991869,127.0630046,11,"서울특별시"
5364,"본 죽&비빔밥 삼성역점","2022-11-02","H113","강남구","대치동",11230,1168010600,"서울특별시 강남구 테헤란로88길 10 (대치동, 신안메트로칸) B109",37.5068448,127.0594705,11,"서울특별시"
5365,"샐러디 (선릉중앙점)","2022-11-02","H113","강남구","대치동",11230,1168010600,"서울특별시 강남구 선릉로86길 18, 지상2층 21호(대치동)",37.5033371,127.0512468,11,"서울특별시"
5366,"샐러디 (한티역점)","2022-11-02","H113","강남구","대치동",11230,1168010600,"서울특별시 강남구 선릉로 320, 1층 105호 (대치동, 성진빌딩)",37.4982808,127.0522042,11,"서울특별시"
5367,"샐러디 (대치점)","2022-11-02","H113","강남구","대치동",11230,1168010600,"서울특별시 강남구 삼성로 151, 상가동 지상1층 104호( 대치동, 선경아파트)",37.4920745,127.0626072,11,"서울특별시"
5368,"아그라 (강남롯데백화점)","2022-11-02","H113","강남구","대치동",11230,1168010600,"서울특별시 강남구 도곡로 401 롯데백화점 강남점 지하1층",37.4967713,127.0538518,11,"서울특별시"
5369,"퀴즈노스 (대치1호점)","2022-11-02","H113","강남구","대치동",11230,1168010600,"서울특별시 강남구 역삼로 519 케이제이빌딩 1층 1호",37.5037681,127.0600859,11,"서울특별시"
5370,"죠샌드위치 (삼성2호)","2022-11-02","H113","강남구","대치동",11230,1168010600,"서울특별시 강남구 테헤란로82길 11",37.5062391,127.0580869,11,"서울특별시"
5371,"죠샌드위치 (포스코사거리)","2022-11-02","H113","강남구","대치동",11230,1168010600,"서울특별시 강남구 삼성로85길 42 대치동대우아이빌멤버스",37.5045643,127.0537195,11,"서울특별시"
5372,"죠샌드위치 (대치사거리)","2022-11-02","H113","강남구","대치동",11230,1168010600,"서울특별시 강남구 삼성로 345",37.5023156,127.0587243,11,"서울특별시"
5373,"반미362 (대치점)","2022-11-02","H113","강남구","대치동",11230,1168010600,"서울특별시 강남구 도곡로 458",37.4984008,127.0604585,11,"서울특별시"
4645,"본죽 신금호역점","2022-11-02","H113","성동구","금호동2가",11040,1120011000,"서울특별시 성동구 금호산길 66-1 (금호동2가)",37.5540605,127.0196842,11,"서울특별시"
4505,"자연드림 강남대치점","2022-11-02","H113","강남구","대치동",11230,1168010600,"서울특별시 강남구 영동대로 229 메디다스벤처타운 1층",37.4995464,127.0674334,11,"서울특별시"
5331,"본 죽&비빔밥 노량진점","2022-11-02","H113","동작구","노량진동",11200,1159010100,"서울특별시 동작구 만양로 81 (노량진동, 문화독서실) ",37.5108108,126.9444658,11,"서울특별시"
5332,"본도시락 동작구청점","2022-11-02","H113","동작구","노량진동",11200,1159010100,"서울특별시 동작구 장승배기로 143-1 (노량진동) ",37.5104551,126.9399577,11,"서울특별시"
5333,"샐러디 (노량진역점)","2022-11-02","H113","동작구","노량진동",11200,1159010100,"서울특별시 동작구 노량진로16길 25, 1층(노량진동)",37.5125457,126.9440002,11,"서울특별시"
4465,"정동진(삼계탕집)","2022-11-02","H113","동작구","노량진동",11200,1159010100,"서울특별시 동작구 만양로 85",37.5110353,126.9443721,11,"서울특별시"
4466,"행복한 밥상","2022-11-02","H113","동작구","노량진동",11200,1159010100,"서울특별시 동작구 만양로 40-2(노량진동, 1층)",37.5080105,126.9477061,11,"서울특별시"
4467,"엄마손김밥","2022-11-02","H113","동작구","노량진동",11200,1159010100,"서울특별시 동작구 등용로14길 81(노량진동)",37.5127514,126.9357966,11,"서울특별시"
4468,"궁중순대보쌈","2022-11-02","H113","동작구","노량진동",11200,1159010100,"서울특별시 동작구 등용로14길 64(노량진동)",37.512068,126.9349579,11,"서울특별시"
4890,"본죽 청량리점","2022-11-02","H113","동대문구","청량리동",11060,1123010700,"서울특별시 동대문구 홍릉로 12 (청량리동)  ",37.5814256,127.0450374,11,"서울특별시"
5280,"투고샐러드 (덕성여대)","2022-11-02","H113","강북구","우이동",11090,1130510400,"서울특별시 강북구 삼양로 531",37.650218,127.0131068,11,"서울특별시"
5281,"히피스베이글","2022-11-02","H113","강북구","우이동",11090,1130510400,"서울특별시 강북구 삼양로 528",37.6500874,127.0136525,11,"서울특별시"
4961,"나마스테","2022-11-02","H113","중구","필동1가",11020,1114013700,"서울특별시 중구 퇴계로 182",37.5608462,126.9919664,11,"서울특별시"
4187,"샘표 우리맛공간","2022-11-02","H113","중구","필동1가",11020,1114013700,"서울특별시 중구 충무로 2, 1층",37.561514719,126.993460498,11,"서울특별시"
4404,"능이버섯백숙전문점","2022-11-02","H113","강북구","우이동",11090,1130510400,"서울특별시 강북구 삼양로139길 16",37.6494222,127.0127547,11,"서울특별시"
4837,"재우해양수산","2022-11-02","H113","중랑구","망우동",11070,1126010500,"서울특별시 중랑구 용마산로115길  98",37.598317,127.0949547,11,"서울특별시"
4838,"김밥천국","2022-11-02","H113","중랑구","망우동",11070,1126010500,"서울특별시 중랑구 용마산로 494",37.5949336,127.1002613,11,"서울특별시"
4839,"부뚜막순대국","2022-11-02","H113","중랑구","망우동",11070,1126010500,"서울특별시 중랑구 용마산로115길 46(망우동)",37.5987437,127.0977354,11,"서울특별시"
4840,"최가네우동","2022-11-02","H113","중랑구","망우동",11070,1126010500,"서울특별시 중랑구 봉우재로57길  62",37.597406,127.0948412,11,"서울특별시"
4841,"시골밥상","2022-11-02","H113","중랑구","망우동",11070,1126010500,"서울특별시 중랑구 망우로66길 10(망우동)",37.599099,127.0994185,11,"서울특별시"
4842,"상봉갈비","2022-11-02","H113","중랑구","망우동",11070,1126010500,"서울특별시 중랑구 망우로  466",37.6002231,127.1038669,11,"서울특별시"
4843,"망우찜쌈밥","2022-11-02","H113","중랑구","망우동",11070,1126010500,"서울특별시 중랑구 용마공원로2길 8(망우동)",37.5945916,127.1003221,11,"서울특별시"
4844,"정가네홍두깨칼국수","2022-11-02","H113","중랑구","망우동",11070,1126010500,"서울특별시 중랑구 망우로62길  61",37.59669,127.0990059,11,"서울특별시"
4845,"맹돌이생선구이쌈밥","2022-11-02","H113","중랑구","망우동",11070,1126010500,"서울특별시 중랑구 용마산로115길 59",37.5983243,127.097095,11,"서울특별시"
4846,"삼웅수산","2022-11-02","H113","중랑구","망우동",11070,1126010500,"서울특별시 중랑구 용마산로113길 31",37.5979786,127.0978352,11,"서울특별시"
4847,"남한강물고기","2022-11-02","H113","중랑구","망우동",11070,1126010500,"서울특별시 중랑구 양원역로8길 26(망우동)",37.6049424,127.1083404,11,"서울특별시"
4848,"대가순대","2022-11-02","H113","중랑구","망우동",11070,1126010500,"서울특별시 중랑구 용마산로 538",37.5989193,127.1006776,11,"서울특별시"
4849,"망우정식","2022-11-02","H113","중랑구","망우동",11070,1126010500,"서울특별시 중랑구 용마산로115길 8",37.5991926,127.0998816,11,"서울특별시"
4850,"남원골","2022-11-02","H113","중랑구","망우동",11070,1126010500,"서울특별시 중랑구 봉우재로 200",37.5944082,127.0951833,11,"서울특별시"
4851,"본죽 망우동점","2022-11-02","H113","중랑구","망우동",11070,1126010500,"서울특별시 중랑구 망우로 467 ",37.6007373,127.1039513,11,"서울특별시"
4852,"본죽 망우우림시장점","2022-11-02","H113","중랑구","망우동",11070,1126010500,"서울특별시 중랑구 용마산로 498 (망우동) ",37.5955019,127.1003451,11,"서울특별시"
4959,"본도시락 신설동역점","2022-11-02","H113","동대문구","신설동",11060,1123010100,"서울특별시 동대문구 왕산로 9-1 (신설동) ",37.5763029,127.0246117,11,"서울특별시"
4960,"본죽 신설동점","2022-11-02","H113","동대문구","신설동",11060,1123010100,"서울특별시 동대문구 천호대로 23 (신설동)  베르빌오피스텔상가 107호",37.5745143,127.0262426,11,"서울특별시"
4970,"본도시락 영등포역점","2022-11-02","H113","영등포구","영등포동3가",11190,1156010400,"서울특별시 영등포구 영등포로 226 (영등포동3가) 1층",37.5194028,126.9063918,11,"서울특별시"
5073,"본도시락 상암DMC점","2022-11-02","H113","마포구","상암동",11140,1144012700,"서울특별시 마포구 월드컵북로 375 (상암동, DMC 이안상암1단지) 103호",37.5775711,126.8906883,11,"서울특별시"
5074,"본죽 상암DMC점","2022-11-02","H113","마포구","상암동",11140,1144012700,"서울특별시 마포구 월드컵북로 396 누리꿈스퀘어  지하1층 1047호",37.5794825,126.8898561,11,"서울특별시"
5075,"본죽 상암하늘초교점","2022-11-02","H113","마포구","상암동",11140,1144012700,"서울특별시 마포구 월드컵북로 502 (상암동, 월드컵파크 프라자) 월드컵파크프라자 1층 113호",37.5850466,126.8798666,11,"서울특별시"
5076,"로봇김밥 그린 (상암MBC몰)","2022-11-02","H113","마포구","상암동",11140,1144012700,"서울특별시 마포구 성암로 267, MBC 신사옥 상업시설 C1 Park 지하1층 B109호",37.5810558,126.8904442,11,"서울특별시"
5077,"아이엠샐러드","2022-11-02","H113","마포구","상암동",11140,1144012700,"서울특별시 마포구 월드컵북로54길 17",37.5813263,126.8885494,11,"서울특별시"
5078,"퀴즈노스 (상암MBC)","2022-11-02","H113","마포구","상암동",11140,1144012700,"서울특별시 마포구 성암로 267 106호",37.5810558,126.8904442,11,"서울특별시"
5079,"샐러디 (상암DMC점)","2022-11-02","H113","마포구","상암동",11140,1144012700,"서울특별시 마포구 월드컵북로54길 25, 1층 119호(상암동, 상암DMC 푸르지오시티, S-City)",37.5813263,126.8885494,11,"서울특별시"
5080,"멜라","2022-11-02","H113","마포구","상암동",11140,1144012700,"서울특별시 마포구 월드컵북로 352-10 1층",37.5773158,126.8932394,11,"서울특별시"
5513,"온더보더 (광화문D타워)","2022-11-02","H113","종로구","청진동",11010,1111012200,"서울특별시 종로구 종로3길 17",37.5709968,126.9789133,11,"서울특별시"
4186,"신천순대국","2022-11-02","H113","동대문구","신설동",11060,1123010100,"서울특별시 동대문구 한빛로 6-1 1층",37.5764551,127.0244965,11,"서울특별시"
4189,"이강순실비집","2022-11-02","H113","영등포구","영등포동3가",11190,1156010400,"서울특별시 영등포구 영등포로46길 8  1-2층",37.518567,126.9076031,11,"서울특별시"
4281,"서울시 농부의 시장","2022-11-02","H113","마포구","상암동",11140,1144012700,"서울특별시 마포구 성암로 267, 상암 MBC 앞",37.581455968,126.8911101544,11,"서울특별시"
4953,"본 죽&비빔밥 경복궁역점","2022-11-02","H113","종로구","통의동",11010,1111010600,"서울특별시 종로구 자하문로2길 1 (통의동) 1층",37.5766109,126.9727572,11,"서울특별시"
5053,"그리너 샐러드 연남본점","2022-11-02","H113","마포구","연남동",11140,1144012400,"서울특별시 마포구 성미산로 157 1층 그리너",37.5646313,126.9236719,11,"서울특별시"
4714,"본 죽&비빔밥 오류점","2022-11-02","H113","구로구","오류동",11170,1153010800,"서울특별시 구로구 경인로 203-1 (오류동) ",37.4961338,126.8435152,11,"서울특별시"
4179,"일석삼조버섯매운탕","2022-11-02","H113","영등포구","도림동",11190,1156011800,"서울특별시 영등포구 도림로112길 21-6",37.5095725,126.9025086,11,"서울특별시"
4875,"건강한식당","2022-11-02","H113","용산구","서계동",11030,1117010800,"서울특별시 용산구 만리재로 196",37.5547725,126.9679075,11,"서울특별시"
4909,"본 죽&비빔밥 여의홍우점","2022-11-02","H113","영등포구","여의도동",11190,1156011000,"서울특별시 영등포구 국제금융로 78 (여의도동, 홍우빌딩) 214,215호",37.5208743,126.9313146,11,"서울특별시"
4910,"본도시락 서여의도점","2022-11-02","H113","영등포구","여의도동",11190,1156011000,"서울특별시 영등포구 국회대로72길 21 (여의도동)  민족통일대통령리빙텔 지하 102호",37.5293359,126.9214866,11,"서울특별시"
4911,"본 죽&비빔밥 여의도역점","2022-11-02","H113","영등포구","여의도동",11190,1156011000,"서울특별시 영등포구 여의나루로 42 (여의도동, 여의도종합상가) 203,204호",37.5214745,126.9249709,11,"서울특별시"
4912,"본도시락 동여의도점","2022-11-02","H113","영등포구","여의도동",11190,1156011000,"서울특별시 영등포구 여의대방로70길 7 (여의도동, 한송빌딩) 1층",37.5189792,126.9329819,11,"서울특별시"
4913,"본죽 여의도KBS점","2022-11-02","H113","영등포구","여의도동",11190,1156011000,"서울특별시 영등포구 의사당대로 38 (여의도동, 여의도더샵아일랜드파크) 102동 122호",37.525468,126.919257,11,"서울특별시"
4914,"온더보더 (여의도IFC)","2022-11-02","H113","영등포구","여의도동",11190,1156011000,"서울특별시 영등포구 국제금융로 10",37.5253017,126.9257192,11,"서울특별시"
4915,"샐러디 (여의도공원점)","2022-11-02","H113","영등포구","여의도동",11190,1156011000,"서울특별시 영등포구 은행로 54, 지하1층 113호(여의도동)",37.529742,126.9245242,11,"서울특별시"
4916,"샐러디 (여의도역점)","2022-11-02","H113","영등포구","여의도동",11190,1156011000,"서울특별시 영등포구 여의나루로 42, 1층 121호(여의도동, 여의도종합상가)",37.5214745,126.9249709,11,"서울특별시"
4917,"그리너리 샐러드","2022-11-02","H113","영등포구","여의도동",11190,1156011000,"서울특별시 영등포구 은행로 29",37.5290873,126.9218974,11,"서울특별시"
4918,"아그라 (여의도)","2022-11-02","H113","영등포구","여의도동",11190,1156011000,"서울특별시 영등포구 국제금융로2길 24 (삼성생명 여의도빌딩) 2층",37.5243116,126.9248397,11,"서울특별시"
4919,"두르가 (여의도)","2022-11-02","H113","영등포구","여의도동",11190,1156011000,"서울특별시 영등포구 국제금융로2길 37",37.5229823,126.9243158,11,"서울특별시"
4920,"강가 (여의도)","2022-11-02","H113","영등포구","여의도동",11190,1156011000,"서울특별시 영등포구 국제금융로2길 7",37.5246543,126.9268485,11,"서울특별시"
4921,"브레드피트","2022-11-02","H113","영등포구","여의도동",11190,1156011000,"서울특별시 영등포구 국제금융로 86 롯데캐슬 아이비",37.5199887,126.9320173,11,"서울특별시"
4922,"퀴즈노스 (LG트윈)","2022-11-02","H113","영등포구","여의도동",11190,1156011000,"서울특별시 영등포구 여의대로 128 지하1층",37.5276713,126.928672,11,"서울특별시"
4106,"한살림 여의도매장","2022-11-02","H113","영등포구","여의도동",11190,1156011000,"서울특별시 영등포구 여의동로 97 1층 101호",37.5174217,126.9271557,11,"서울특별시"
4107,"여의도홍대포","2022-11-02","H113","영등포구","여의도동",11190,1156011000,"서울특별시 영등포구 국제금융로8길 19, 중앙빌딩 지하1층 117호 (여의도동)",37.5207646,126.9291441,11,"서울특별시"
4108,"동해도 본점","2022-11-02","H113","영등포구","여의도동",11190,1156011000,"서울특별시 영등포구 은행로 25(여의도동) 안원빌딩 지하1층",37.5286953,126.921394,11,"서울특별시"
4109,"우들목여의도본점","2022-11-02","H113","영등포구","여의도동",11190,1156011000,"서울특별시 영등포구 여의대방로67길 21 정곡빌딩 2층",37.5205514,126.9294865,11,"서울특별시"
5478,"본죽 봉일시장점","2022-11-02","H113","관악구","봉천동",11210,1162010100,"서울특별시 관악구 은천로 38-1 (봉천동)  ",37.4860424,126.9395791,11,"서울특별시"
5479,"화상손만두","2022-11-02","H113","관악구","봉천동",11210,1162010100,"서울특별시 관악구 남부순환로244길 18",37.4762754,126.962962,11,"서울특별시"
5480,"스윗밸런스 (샤로수길)","2022-11-02","H113","관악구","봉천동",11210,1162010100,"서울특별시 관악구 관악로14길 99",37.4779789,126.9578959,11,"서울특별시"
5481,"도스타코스 (서울대입구역)","2022-11-02","H113","관악구","봉천동",11210,1162010100,"서울특별시 관악구 관악로14길 6",37.4791417,126.9528597,11,"서울특별시"
5482,"퍼블리코타코","2022-11-02","H113","관악구","봉천동",11210,1162010100,"서울특별시 관악구 관악로14길 106",37.4776664,126.9582281,11,"서울특별시"
5483,"엔조","2022-11-02","H113","관악구","봉천동",11210,1162010100,"서울특별시 관악구 관악로 154 대도빌딩",37.4789416,126.9526477,11,"서울특별시"
5484,"엘리펀트키친","2022-11-02","H113","관악구","봉천동",11210,1162010100,"서울특별시 관악구 관악로14길 15",37.4792557,126.9535139,11,"서울특별시"
5485,"낭만모로코","2022-11-02","H113","관악구","봉천동",11210,1162010100,"서울특별시 관악구 관악로14길 88",37.4779911,126.95724,11,"서울특별시"
5486,"원더로우","2022-11-02","H113","관악구","봉천동",11210,1162010100,"서울특별시 관악구 관악로12길 105",37.4773233,126.9581424,11,"서울특별시"
5487,"라미스콘","2022-11-02","H113","관악구","봉천동",11210,1162010100,"서울특별시 관악구 관악로14길 88",37.4779911,126.95724,11,"서울특별시"
5517,"봉평메밀막국수&대관령가는길","2022-11-02","H113","은평구","응암동",11120,1138010700,"서울특별시 은평구 응암로 263",37.5954523,126.9183815,11,"서울특별시"
5518,"본 죽&비빔밥 응암오거리점","2022-11-02","H113","은평구","응암동",11120,1138010700,"서울특별시 은평구 가좌로 245-1 (응암동) 1층",37.5912,126.915499,11,"서울특별시"
5519,"본죽 응암동점","2022-11-02","H113","은평구","응암동",11120,1138010700,"서울특별시 은평구 은평로 119 (응암동) 1층 102호",37.6005392,126.9209125,11,"서울특별시"
5520,"본 죽&비빔밥 녹번점","2022-11-02","H113","은평구","응암동",11120,1138010700,"서울특별시 은평구 은평로 240 (응암동) 힐스테이트 녹번역 근린생활시설 218호",37.6012382,126.9333822,11,"서울특별시"
5521,"샐러디 (응암점)","2022-11-02","H113","은평구","응암동",11120,1138010700,"서울특별시 은평구 은평로 108 , 1층 105호 (응암동, 메트로럭스주상복합APT)",37.5997476,126.9200746,11,"서울특별시"
4062,"문래식당","2022-11-02","H113","영등포구","문래동2가",11190,1156012000,"서울특별시 영등포구 경인로77길 14, 영문빌딩 1층 101호 (문래동2가)",37.5130061,126.8929229,11,"서울특별시"
4536,"한살림 봉천매장","2022-11-02","H113","관악구","봉천동",11210,1162010100,"서울특별시 관악구 양녕로 74 1층",37.4884935,126.946657,11,"서울특별시"
4537,"서울남부두레생협 보라매점","2022-11-02","H113","관악구","봉천동",11210,1162010100,"서울특별시 관악구 당곡길 74 (봉천동)",37.4920314,126.9272702,11,"서울특별시"
4538,"자연드림 서울관악점","2022-11-02","H113","관악구","봉천동",11210,1162010100,"서울특별시 관악구 은천로 81 1층",37.4870491,126.9443253,11,"서울특별시"
4539,"행복중심생협 낙성대매장","2022-11-02","H113","관악구","봉천동",11210,1162010100,"서울특별시 관악구 남부순환로234길 6 (봉천동 1664-15 1층)",37.4791538,126.9572803,11,"서울특별시"
4540,"배영만 당진아구","2022-11-02","H113","관악구","봉천동",11210,1162010100,"서울특별시 관악구 봉천로 560, 1층 (봉천동)",37.4776266,126.9598454,11,"서울특별시"
4541,"얼큰수제비해물칼국수","2022-11-02","H113","관악구","봉천동",11210,1162010100,"서울특별시 관악구 관악로  113",37.4752101,126.9525189,11,"서울특별시"
4542,"이금옥 샤브샤브칼국수","2022-11-02","H113","관악구","봉천동",11210,1162010100,"서울특별시 관악구 관악로  132 2층",37.4770231,126.952731,11,"서울특별시"
4543,"요리요리","2022-11-02","H113","관악구","봉천동",11210,1162010100,"서울 관악구 관악로12길 3-6",37.4784115,126.9528134,11,"서울특별시"
4544,"낙성곱창","2022-11-02","H113","관악구","봉천동",11210,1162010100,"서울특별시 관악구 봉천로 495-3",37.4814592,126.9551,11,"서울특별시"
4545,"태능숯불갈비","2022-11-02","H113","관악구","봉천동",11210,1162010100,"서울특별시 관악구 봉천로7길 30 2층",37.4907696,126.9262479,11,"서울특별시"
4546,"갯바위","2022-11-02","H113","관악구","봉천동",11210,1162010100,"서울특별시 관악구 남부순환로216길 13, 1층 (봉천동)",37.4808656,126.9491271,11,"서울특별시"
4547,"산야로","2022-11-02","H113","관악구","봉천동",11210,1162010100,"서울특별시 관악구 관악로 111",37.4750112,126.9524425,11,"서울특별시"
4548,"함흥냉면","2022-11-02","H113","관악구","봉천동",11210,1162010100,"서울특별시 관악구 봉천로 586, 1층 (봉천동)",37.4766838,126.9622667,11,"서울특별시"
4549,"황금짜장","2022-11-02","H113","관악구","봉천동",11210,1162010100,"서울특별시 관악구 장군봉1길  19 1층",37.4820023,126.9412078,11,"서울특별시"
4561,"은평두레생협 백련산점","2022-11-02","H113","은평구","응암동",11120,1138010700,"서울특별시 은평구 응암로22길 21, 1층",37.5936522,126.9205703,11,"서울특별시"
4562,"상하이문","2022-11-02","H113","은평구","응암동",11120,1138010700,"서울특별시 은평구 응암로 247",37.5942312,126.9178669,11,"서울특별시"
4563,"스시쇼부","2022-11-02","H113","은평구","응암동",11120,1138010700,"서울특별시 은평구 은평로13길 11-9 1층",37.6020457,126.9250583,11,"서울특별시"
4564,"스시쇼부(2층)","2022-11-02","H113","은평구","응암동",11120,1138010700,"서울특별시 은평구 은평로13길 11-9 2층",37.6020457,126.9250583,11,"서울특별시"
4565,"백년토종삼계탕","2022-11-02","H113","은평구","응암동",11120,1138010700,"서울특별시 은평구 응암로 209 (응암동)",37.590764,126.9170792,11,"서울특별시"
4566,"원할머니보쌈 녹번점","2022-11-02","H113","은평구","응암동",11120,1138010700,"서울특별시 은평구 은평로 170 상현빌딩 204호",37.6010962,126.9266574,11,"서울특별시"
4567,"산도토리임자탕","2022-11-02","H113","은평구","응암동",11120,1138010700,"서울특별시 은평구 서오릉로 9-13",37.6022341,126.9259615,11,"서울특별시"
4568,"(원)할머니보쌈 응암점","2022-11-02","H113","은평구","응암동",11120,1138010700,"서울특별시 은평구 응암로 253, 1층",37.59471,126.9180072,11,"서울특별시"
4040,"대청마루","2022-11-02","H113","영등포구","양평동1가",11190,1156012500,"서울특별시 영등포구 선유동1로 23(양평동1가)",37.5242486,126.8917046,11,"서울특별시"
4701,"할매복집","2022-11-02","H113","중랑구","묵동",11070,1126010400,"서울특별시 중랑구 공릉로 82(묵동)",37.6177119,127.0792465,11,"서울특별시"
4702,"채선당 묵동점","2022-11-02","H113","중랑구","묵동",11070,1126010400,"서울특별시 중랑구 동일로  942",37.6145689,127.0771445,11,"서울특별시"
4703,"바다횟집","2022-11-02","H113","중랑구","묵동",11070,1126010400,"서울특별시 중랑구 중랑역로  219-1",37.6130053,127.0753742,11,"서울특별시"
4704,"능이버섯백숙","2022-11-02","H113","중랑구","묵동",11070,1126010400,"서울특별시 중랑구 공릉로 32(B01호 묵동, 공감대아파트)",37.6136139,127.0783116,11,"서울특별시"
4705,"신담터추어탕","2022-11-02","H113","중랑구","묵동",11070,1126010400,"서울특별시 중랑구 공릉로 73",37.6169726,127.0791877,11,"서울특별시"
4706,"본죽 먹골역점","2022-11-02","H113","중랑구","묵동",11070,1126010400,"서울특별시 중랑구 공릉로4길 4 (묵동, 묵동해오름아파트) ",37.6131901,127.0782715,11,"서울특별시"
3928,"한살림 신내매장","2022-11-02","H113","중랑구","묵동",11070,1126010400,"서울특별시 중랑구 신내로15길 196",37.6157124,127.087472,11,"서울특별시"
4581,"지우(명동점)","2022-11-02","H113","중구","남산동1가",11020,1114012800,"서울특별시 중구 퇴계로18길 20(남산동1가)",37.5600499,126.9852652,11,"서울특별시"
5273,"원할머니보쌈,족발본점","2022-11-02","H113","중구","황학동",11020,1114016500,"서울특별시 중구 난계로 201(황학동)",37.5696415,127.023193,11,"서울특별시"
5274,"본죽 황학동롯데캐슬점","2022-11-02","H113","중구","황학동",11020,1114016500,"서울특별시 중구 청계천로 400 (황학동, 롯데캐슬베네치아) 지상1층 1218호",37.5708783,127.021309,11,"서울특별시"
5275,"본 죽&비빔밥 창동점","2022-11-02","H113","도봉구","창동",11100,1132010700,"서울특별시 도봉구 노해로63가길 12 (창동) ",37.6531948,127.0452636,11,"서울특별시"
5276,"본 죽&비빔밥 창4동점","2022-11-02","H113","도봉구","창동",11100,1132010700,"서울특별시 도봉구 노해로69길 26 (창동, 창동시티월드) 창동씨티월드 1층",37.6536911,127.0509463,11,"서울특별시"
5277,"본죽 신창점[신창시장]","2022-11-02","H113","도봉구","창동",11100,1132010700,"서울특별시 도봉구 덕릉로 250 (창동)  ",37.6397396,127.0393739,11,"서울특별시"
5278,"콩밭뜰","2022-11-02","H113","도봉구","창동",11100,1132010700,"서울특별시 도봉구 도봉로110아길 10",37.645805,127.0373355,11,"서울특별시"
4387,"한울푸드","2022-11-02","H113","영등포구","양평동5가",11190,1156012900,"서울특별시 영등포구 양평로 149 (양평동5가,우림라이온스밸리1차 A동 지하 101호)",37.5387168,126.8914453,11,"서울특별시"
4388,"푸드명가","2022-11-02","H113","영등포구","양평동5가",11190,1156012900,"서울특별시 영등포구 양평로22길 21, B113 호 (양평동5가, 선유도코오롱디지털타워)",37.5397917,126.8946203,11,"서울특별시"
4391,"행복중심생협 창동매장","2022-11-02","H113","도봉구","창동",11100,1132010700,"서울특별시 도봉구 노해로63가길 12 102호(창4동 성당 입구)",37.6532037,127.0452522,11,"서울특별시"
4392,"원조삼계탕","2022-11-02","H113","도봉구","창동",11100,1132010700,"서울특별시 도봉구 노해로67길 10 1층 (창동)",37.6523385,127.0496943,11,"서울특별시"
4393,"쌈촌창동역점","2022-11-02","H113","도봉구","창동",11100,1132010700,"서울특별시 도봉구 노해로65길 11(2층 2,3,4호 창동, 한성빌딩)",37.6518148,127.0461992,11,"서울특별시"
4394,"남원추어탕","2022-11-02","H113","도봉구","창동",11100,1132010700," 도봉구 노해로67길 10, 1층 103호 (창동, 하나B/D)",37.6523385,127.0496943,11,"서울특별시"
4395,"설담재 설렁탕","2022-11-02","H113","도봉구","창동",11100,1132010700,"서울특별시 도봉구 도봉로 562(지상1층 창동)",37.654794,127.039146,11,"서울특별시"
4396,"삿뽀로 창동점 (주)엔타스","2022-11-02","H113","도봉구","창동",11100,1132010700,"서울특별시 도봉구 도봉로 610(2층 창동)",37.6589197,127.0412349,11,"서울특별시"
4397,"백제갈비촌","2022-11-02","H113","도봉구","창동",11100,1132010700,"서울특별시 도봉구 노해로69길 15, 101,102,103,104호 (창동, 세정빌딩)",37.6529859,127.0506493,11,"서울특별시"
4398,"낙지애가","2022-11-02","H113","도봉구","창동",11100,1132010700,"서울 도봉구 덕릉로 251, 지상2층 (창동)",37.6401704,127.0391644,11,"서울특별시"
4399,"갯마을식당","2022-11-02","H113","도봉구","창동",11100,1132010700,"서울특별시 도봉구 해등로3길  27 (창동)",37.6470033,127.0428612,11,"서울특별시"
4400,"최고집","2022-11-02","H113","도봉구","창동",11100,1132010700,"서울특별시 도봉구 덕릉로  270 (창동)",37.6411581,127.0409533,11,"서울특별시"
4401,"전복&흑임자삼계탕","2022-11-02","H113","도봉구","창동",11100,1132010700,"서울특별시 도봉구 노해로69길 15-15 2층 206,207호 (창동)",37.6528278,127.0500281,11,"서울특별시"
4402,"산도토리임자탕","2022-11-02","H113","도봉구","창동",11100,1132010700,"서울특별시 도봉구 덕릉로60길 13",37.6396288,127.0401458,11,"서울특별시"
4405,"정겨운풍경","2022-11-02","H113","영등포구","양평동2가",11190,1156012600,"서울특별시 영등포구 영등포로5길 19 동아프라임밸리 지하1층 B111호",37.5241149,126.8842061,11,"서울특별시"
4406,"소담촌","2022-11-02","H113","영등포구","양평동2가",11190,1156012600,"서울특별시 영등포구 영등포로 21, 3층 (양평동2가)",37.5235189,126.8840679,11,"서울특별시"
4730,"에베레스트 (종로)","2022-11-02","H113","종로구","창신동",11010,1111017400,"서울특별시 종로구 종로 305 2층",37.5721307,127.0115684,11,"서울특별시"
4731,"에베레스트 (동대문)","2022-11-02","H113","종로구","창신동",11010,1111017400,"서울특별시 종로구 종로51가길 2-1",37.5725801,127.0125134,11,"서울특별시"
5466,"본 죽&비빔밥 둔촌보훈병원점","2022-11-02","H113","강동구","둔촌동",11250,1174010600,"서울특별시 강동구 진황도로 189 (둔촌동) 1층 101호",37.5294506,127.1433404,11,"서울특별시"
5169,"전주풍남회관","2022-11-02","H113","중구","태평로1가",11020,1114010300,"서울특별시 중구 세종대로21길 48(태평로1가)",37.5685385,126.9759697,11,"서울특별시"
5170,"이구갈비","2022-11-02","H113","중구","태평로1가",11020,1114010300,"서울특별시 중구 세종대로20길 19(태평로1가,1층)",37.5671455,126.9784678,11,"서울특별시"
5171,"강가","2022-11-02","H113","중구","태평로1가",11020,1114010300,"서울특별시 중구 세종대로 136(태평로1가,서울파이낸스센타 지하2층)",37.5684233,126.9782692,11,"서울특별시"
5172,"마라공방","2022-11-02","H113","중구","태평로1가",11020,1114010300,"서울특별시 중구 세종대로21길 55(태평로1가,외1필지지상2층)",37.5690068,126.9759407,11,"서울특별시"
5173,"에이투지카페 (SFC)","2022-11-02","H113","중구","태평로1가",11020,1114010300,"서울특별시 중구 세종대로 136",37.5684233,126.9782692,11,"서울특별시"
5174,"강가 (무교)","2022-11-02","H113","중구","태평로1가",11020,1114010300,"서울특별시 중구 세종대로 136",37.5684233,126.9782692,11,"서울특별시"
5058,"MTL (효창)","2022-11-02","H113","용산구","효창동",11030,1117011900,"서울특별시 용산구 효창원로69길 25 1층 mtl",37.5420154,126.9608978,11,"서울특별시"
4278,"행복중심생협 용산매장","2022-11-02","H113","용산구","효창동",11030,1117011900,"서울특별시 용산구 효창원로157 (효창동 5-495 효창맨션 1층)",37.5419973,126.9619052,11,"서울특별시"
4734,"본 죽&비빔밥 마포롯데캐슬점","2022-11-02","H113","마포구","공덕동",11140,1144010200,"서울특별시 마포구 마포대로 109 (공덕동, 롯데캐슬프레지던트) 롯데캐슬프레지던트상가 지하1층 13-1호",37.5450887,126.950795,11,"서울특별시"
4735,"본죽 마포공덕점","2022-11-02","H113","마포구","공덕동",11140,1144010200,"서울특별시 마포구 마포대로8길 29 (공덕동)  1층",37.5460791,126.9547758,11,"서울특별시"
4736,"샐러디 (공덕역점)","2022-11-02","H113","마포구","공덕동",11140,1144010200,"서울특별시 마포구 마포대로 156, 1층 114호(공덕동, 공덕푸르지오시티)",37.5479136,126.9543655,11,"서울특별시"
4737,"반미362 (공덕파크자이점)","2022-11-02","H113","마포구","공덕동",11140,1144010200,"서울특별시 마포구 백범로 152",37.5451487,126.9474106,11,"서울특별시"
3931,"자연드림 공덕아현점","2022-11-02","H113","마포구","공덕동",11140,1144010200,"서울특별시 마포구 마포대로 173-15 래미안공덕5차 제상가동 108~110호",37.5506425,126.9521884,11,"서울특별시"
5341,"본죽 한양대점","2022-11-02","H113","성동구","행당동",11040,1120010700,"서울특별시 성동구 마조로 25 (행당동) 102호",37.5600648,127.0409411,11,"서울특별시"
5342,"본도시락 한양대후문점","2022-11-02","H113","성동구","행당동",11040,1120010700,"서울특별시 성동구 마조로 32",37.5605827,127.0414778,11,"서울특별시"
5343,"본 죽&비빔밥 행당동점","2022-11-02","H113","성동구","행당동",11040,1120010700,"서울특별시 성동구 행당로 101 (행당동) 1층",37.5578322,127.0301608,11,"서울특별시"
5344,"샐러디 (한양대점)","2022-11-02","H113","성동구","행당동",11040,1120010700,"서울특별시 성동구 마조로 24, 1층(행당동)",37.5598335,127.0413063,11,"서울특별시"
5345,"투고샐러드 (한양대)","2022-11-02","H113","성동구","행당동",11040,1120010700,"서울특별시 성동구 사근동길 6",37.5601456,127.0420153,11,"서울특별시"
4469,"마포갈비생등심","2022-11-02","H113","성동구","행당동",11040,1120010700,"서울특별시 성동구 행당로8길 9",37.55763,127.0307633,11,"서울특별시"
5300,"본죽 도봉월드점","2022-11-02","H113","도봉구","방학동",11100,1132010600,"서울특별시 도봉구 마들로 650 (방학동) 216호",37.6680404,127.0470798,11,"서울특별시"
5301,"본도시락 방학사거리점","2022-11-02","H113","도봉구","방학동",11100,1132010600,"서울특별시 도봉구 방학로 106 (방학동) ",37.6631573,127.0404777,11,"서울특별시"
4419,"한살림 방학매장","2022-11-02","H113","도봉구","방학동",11100,1132010600,"서울특별시 도봉구 도봉로150길 31 ESA아파트 상가 122, 113호",37.6663739,127.0449022,11,"서울특별시"
4420,"행복중심생협 방학매장","2022-11-02","H113","도봉구","방학동",11100,1132010600,"서울특별시 도봉구 방학로 210 신동아타워 상가 108호",37.6623774,127.0288476,11,"서울특별시"
4421,"Tokyo(도쿄)감자탕","2022-11-02","H113","도봉구","방학동",11100,1132010600,"서울특별시 도봉구 마들로 650 210호",37.6680404,127.0470798,11,"서울특별시"
4422,"통통칼국수","2022-11-02","H113","도봉구","방학동",11100,1132010600,"서울특별시 도봉구 방학로10길 4",37.6627022,127.0332863,11,"서울특별시"
4423,"순두부마을","2022-11-02","H113","도봉구","방학동",11100,1132010600,"서울특별시 도봉구 마들로 650 206호",37.6680404,127.0470798,11,"서울특별시"
4424,"나주곰탕","2022-11-02","H113","도봉구","방학동",11100,1132010600,"서울특별시 도봉구 도봉로150다길 28 1층 105호 (방학동, 지음재힐스)",37.6674364,127.0448205,11,"서울특별시"
4425,"황해도찹쌀순대","2022-11-02","H113","도봉구","방학동",11100,1132010600,"서울특별시 도봉구 마들로 659 1층",37.6691215,127.0459551,11,"서울특별시"
4426,"반값소","2022-11-02","H113","도봉구","방학동",11100,1132010600,"서울특별시 도봉구 방학로 173(2층 201호 방학동)",37.6621136,127.0329313,11,"서울특별시"
4427,"금강산감자탕","2022-11-02","H113","도봉구","방학동",11100,1132010600,"서울특별시 도봉구 도봉로 669",37.6643256,127.0423215,11,"서울특별시"
4428,"주식회사 반값소 푸드컴퍼니","2022-11-02","H113","도봉구","방학동",11100,1132010600,"서울특별시 도봉구 방학로 173 2층 201호",37.6621136,127.0329313,11,"서울특별시"
4429,"아바이순대","2022-11-02","H113","도봉구","방학동",11100,1132010600,"서울 도봉구 시루봉로17길 12 (방학동)",37.6685838,127.0341395,11,"서울특별시"
4430,"고향삼계탕","2022-11-02","H113","도봉구","방학동",11100,1132010600,"서울특별시 도봉구 도봉로147길 5 1층 (방학동)",37.6651089,127.0422434,11,"서울특별시"
4638,"본죽 문정로데오점","2022-11-02","H113","송파구","문정동",11240,1171010800,"서울특별시 송파구 동남로6길 3 (문정동)  1층",37.489907,127.1241953,11,"서울특별시"
4639,"본 죽&비빔밥 문정법조단지점","2022-11-02","H113","송파구","문정동",11240,1171010800,"서울특별시 송파구 송파대로 167 (문정동, 문정역테라타워) B동 1층 130호",37.484859,127.1214839,11,"서울특별시"
4640,"본도시락 문정법조타운점","2022-11-02","H113","송파구","문정동",11240,1171010800,"서울특별시 송파구 충민로 5 (문정동, 송파한화오벨리스크) 119호",37.4801326,127.1196284,11,"서울특별시"
4641,"샐러디 (문정엠스테이트점)","2022-11-02","H113","송파구","문정동",11240,1171010800,"서울특별시 송파구 법원로 114, 제이동 비176호(문정동, 엠스테이트)",37.4856372,127.1207172,11,"서울특별시"
4642,"포켓파크","2022-11-02","H113","송파구","문정동",11240,1171010800,"서울특별시 송파구 법원로11길 11 B동 146호",37.4850246,127.1183159,11,"서울특별시"
4643,"퀴즈노스 (문정법조타운)","2022-11-02","H113","송파구","문정동",11240,1171010800,"서울특별시 송파구 법원로11길 11 A동 131호",37.4850246,127.1183159,11,"서울특별시"
4644,"죠샌드위치 (문정법조타운)","2022-11-02","H113","송파구","문정동",11240,1171010800,"서울특별시 송파구 법원로11길 25 H비지니스파크 A-117호",37.4850657,127.1165854,11,"서울특별시"
4191,"서울시 농부의 시장","2022-11-02","H113","광진구","능동",11050,1121510200,"서울특별시 광진구 능동로 216, 서울어린이대공원 후문",37.5495160899,127.0818662421,11,"서울특별시"
5440,"본 죽&비빔밥 합정역점","2022-11-02","H113","마포구","서교동",11140,1144012000,"서울특별시 마포구 양화로 73 (서교동, 체리스빌딩) 102호",37.5514415,126.9159396,11,"서울특별시"
5441,"본죽 홍대점","2022-11-02","H113","마포구","서교동",11140,1144012000,"서울특별시 마포구 홍익로 10 (서교동, 서교푸르지오)  서교푸르지오B 106호",37.5536572,126.9237279,11,"서울특별시"
5442,"본도시락 홍대점","2022-11-02","H113","마포구","서교동",11140,1144012000,"서울특별시 마포구 홍익로 10 (서교동, 서교푸르지오) B107호",37.5536572,126.9237279,11,"서울특별시"
5443,"언플러그드","2022-11-02","H113","마포구","서교동",11140,1144012000,"서울특별시 마포구 와우산로33길 26",37.5555002,126.9292131,11,"서울특별시"
5444,"샐러디 (합정역점)","2022-11-02","H113","마포구","서교동",11140,1144012000,"서울특별시 마포구 양화로7길 3, 1층 102호(서교동)",37.5509932,126.9151991,11,"서울특별시"
5445,"홍쉐프","2022-11-02","H113","마포구","서교동",11140,1144012000,"서울특별시 마포구 동교로 164 1층 홍쉐프",37.5557152,126.9201784,11,"서울특별시"
5446,"내여자를부탁해 (메세나폴리스)","2022-11-02","H113","마포구","서교동",11140,1144012000,"서울특별시 마포구 양화로 45 2F",37.5509904,126.913909,11,"서울특별시"
5447,"델리인디아","2022-11-02","H113","마포구","서교동",11140,1144012000,"서울특별시 마포구 독막로9길 8 2층",37.5486922,126.9197479,11,"서울특별시"
5448,"포인트프레드릭","2022-11-02","H113","마포구","서교동",11140,1144012000,"서울특별시 마포구 동교로12길 12",37.5537147,126.9122963,11,"서울특별시"
4653,"본 죽&비빔밥 강북삼성병원점","2022-11-02","H113","종로구","평동",11010,1111017700,"서울특별시 종로구 새문안로 29, 신관1층 (평동,강북삼성병원) ",37.5683376,126.9673921,11,"서울특별시"
4695,"신가원 설렁탕","2022-11-02","H113","중구","을지로1가",11020,1114010400,"서울특별시 중구 을지로1길  10 1~2층",37.5665187,126.9799592,11,"서울특별시"
4279,"엉터리생고기 연신내점","2022-11-02","H113","은평구","갈현동",11120,1138010400,"서울특별시 은평구 통일로83길 6-10",37.6215452,126.9192836,11,"서울특별시"
4280,"능원식당","2022-11-02","H113","은평구","갈현동",11120,1138010400,"서울특별시 은평구 통일로89길 6-10, 1층",37.6250782,126.919391,11,"서울특별시"
3900,"돈푸대","2022-11-02","H113","영등포구","영등포동8가",11190,1156010900,"서울특별시 영등포구 영신로 228-6, 한양아이클래스오피스텔 1층 108호 (영등포동8가)",37.5273734,126.9040693,11,"서울특별시"
3901,"샤브맘","2022-11-02","H113","영등포구","영등포동8가",11190,1156010900,"서울특별시 영등포구 영중로 133 (영등포동8가,1층 103호)",37.5282502,126.905335,11,"서울특별시"
5503,"머노까머나 (대학로)","2022-11-02","H113","종로구","명륜4가",11010,1111017200,"서울특별시 종로구 창경궁로 236 이화빌딩",37.5826013,126.998806,11,"서울특별시"
5223,"본죽 아현점","2022-11-02","H113","마포구","아현동",11140,1144010100,"서울특별시 마포구 마포대로21길 46 (아현동) ",37.5550423,126.9555448,11,"서울특별시"
4733,"본 죽&비빔밥 세곡점","2022-11-02","H113","강남구","세곡동",11230,1168011100,"서울특별시 강남구 헌릉로569길 9 (세곡동, 강남지웰파인즈) 106호",37.4667902,127.1007819,11,"서울특별시"
4351,"한살림 아현매장","2022-11-02","H113","마포구","아현동",11140,1144010100,"서울특별시 마포구 마포대로 195(아현동 774번지) 마포래미안푸르지오 101동 상가 1층",37.5555203,126.9545874,11,"서울특별시"
4352,"행복중심생협 아현매장","2022-11-02","H113","마포구","아현동",11140,1144010100,"서울특별시 마포구 마포대로 195 마포래미안푸르지오 상가4동 111호",37.5553693,126.9538086,11,"서울특별시"
4904,"본도시락 마포역점","2022-11-02","H113","마포구","용강동",11140,1144010500,"서울특별시 마포구 토정로 317 (용강동) 1층",37.539794,126.9440913,11,"서울특별시"
4098,"한살림 마포매장","2022-11-02","H113","마포구","용강동",11140,1144010500,"서울특별시 마포구 토정로 269 1층",37.5426867,126.9401126,11,"서울특별시"
4762,"본죽 화양사거리점","2022-11-02","H113","광진구","군자동",11050,1121510900,"서울특별시 광진구 광나루로 341 (군자동)  1층",37.5485222,127.0679213,11,"서울특별시"
4763,"본죽 군자역점","2022-11-02","H113","광진구","군자동",11050,1121510900,"서울특별시 광진구 능동로 285 (군자동)  ",37.5554778,127.0781906,11,"서울특별시"
5456,"우부래도","2022-11-02","H113","동작구","상도1동",11200,1159010300,"서울특별시 동작구 상도로37길 3",37.5031804,126.9486674,11,"서울특별시"
4524,"고향한방삼계탕","2022-11-02","H113","동작구","상도1동",11200,1159010300,"서울특별시 동작구 양녕로 268-1(상도1동)",37.503562,126.9490127,11,"서울특별시"
4525,"사리원유승배만두","2022-11-02","H113","동작구","상도1동",11200,1159010300,"서울특별시 동작구 상도로50길 2-15(상도1동)",37.4991523,126.9506352,11,"서울특별시"
5183,"본죽 중곡사거리점","2022-11-02","H113","광진구","중곡동",11050,1121510100,"서울특별시 광진구 긴고랑로 115 (중곡동)  1층",37.5593472,127.0879674,11,"서울특별시"
5184,"본도시락 군자점","2022-11-02","H113","광진구","중곡동",11050,1121510100,"서울특별시 광진구 능동로 339 (중곡동)  ",37.559922,127.0807618,11,"서울특별시"
5185,"본죽 중곡동점","2022-11-02","H113","광진구","중곡동",11050,1121510100,"서울특별시 광진구 면목로 133, 1층(중곡동) ",37.5653648,127.0808194,11,"서울특별시"
4340,"행복중심생협 광진매장","2022-11-02","H113","광진구","중곡동",11050,1121510100,"서울특별시 광진구 긴고랑로41 1층 (중곡동 241-17)",37.5629868,127.0809165,11,"서울특별시"
4573,"아그라 (센터원)","2022-11-02","H113","중구","수하동",11020,1114010800,"서울특별시 중구 을지로5길 26 미래에셋빌딩 지하2층",37.5673752,126.9852451,11,"서울특별시"
4595,"본죽 신수서강대역점","2022-11-02","H113","마포구","신수동",11140,1144011100,"서울특별시 마포구 서강로 106 (신수동)  신촌 클리닉 103호",37.5523497,126.9335475,11,"서울특별시"
4596,"샐러디 (서강대점)","2022-11-02","H113","마포구","신수동",11140,1144011100,"서울특별시 마포구 백범로 35, 지1층 107-1호(신수동, 서강대학교 곤자가프라자)",37.5514621,126.9410408,11,"서울특별시"
4597,"니니네","2022-11-02","H113","마포구","신수동",11140,1144011100,"서울특별시 마포구 광성로6길 30 1층",37.5485679,126.9388297,11,"서울특별시"
5031,"본 죽&비빔밥 제기동역점","2022-11-02","H113","동대문구","용두동",11060,1123010200,"서울특별시 동대문구 정릉천동로 58 (용두동, 롯데캐슬피렌체) 133호",37.5769428,127.0355962,11,"서울특별시"
5112,"샐러디 (당산역점)","2022-11-02","H113","영등포구","당산동5가",11190,1156011500,"서울특별시 영등포구 당산로 214, 상가1동 103-2호(당산동5가, 당산삼성래미안)",37.5327848,126.9036507,11,"서울특별시"
4254,"가도","2022-11-02","H113","동대문구","용두동",11060,1123010200,"서울특별시 동대문구 왕산로28길 35, 1층 (용두동)",37.5766109,127.0390987,11,"서울특별시"
4255,"완산골","2022-11-02","H113","동대문구","용두동",11060,1123010200,"서울특별시 동대문구 무학로 119-1",37.574963,127.0304028,11,"서울특별시"
4256,"용두옥","2022-11-02","H113","동대문구","용두동",11060,1123010200,"서울특별시 동대문구 무학로20길 34",37.571024,127.0324236,11,"서울특별시"
4257,"공릉닭한마리","2022-11-02","H113","동대문구","용두동",11060,1123010200,"서울특별시 동대문구 무학로 104 1층",37.5735349,127.0309534,11,"서울특별시"
4258,"조영환의 대양한방숯불갈비","2022-11-02","H113","동대문구","용두동",11060,1123010200,"서울 동대문구 고산자로 399(용두동)",37.5752576,127.0377802,11,"서울특별시"
4310,"한탄강 민물매운탕","2022-11-02","H113","영등포구","당산동5가",11190,1156011500,"서울특별시 영등포구 당산로 214 B10호",37.531852,126.9031439,11,"서울특별시"
5516,"샐러디 (동대문점)","2022-11-02","H113","종로구","종로6가",11010,1111016400,"서울특별시 종로구 종로 272, 5층 501호(종로6가, 동대문종합시장 신관)",37.5703876,127.0089312,11,"서울특별시"
4821,"양반댁","2022-11-02","H113","종로구","인사동",11010,1111013600,"서울특별시 종로구 인사동길 19-18(인사동)",37.5722736,126.9859258,11,"서울특별시"
4822,"작은인디아 (리틀인디아)","2022-11-02","H113","종로구","인사동",11010,1111013600,"서울특별시 종로구 인사동길 27",37.5730671,126.9859943,11,"서울특별시"
5046,"죠샌드위치 (의주로)","2022-11-02","H113","중구","순화동",11020,1114016800,"서울특별시 중구 통일로 86 바비엥3",37.5630761,126.9695134,11,"서울특별시"
5047,"샐러디 (덕수궁롯데캐슬점)","2022-11-02","H113","중구","순화동",11020,1114016800,"서울특별시 중구 서소문로9길 28, 제지1층 제비103호(순화동,덕수궁롯데캐슬)",37.5636418,126.9703206,11,"서울특별시"
4637,"본죽 강일지구점","2022-11-02","H113","강동구","강일동",11250,1174011000,"서울특별시 강동구 아리수로93길 33 (강일동)  베스트프라자 106호",37.5658338,127.1735094,11,"서울특별시"
3899,"한살림 강일매장","2022-11-02","H113","강동구","강일동",11250,1174011000,"서울특별시 강동구 강일동 503 리엔프라자 102, 103호",37.5569721,127.1728829,11,"서울특별시"
4593,"본 죽&비빔밥 하계점","2022-11-02","H113","노원구","하계동",11110,1135010400,"서울특별시 노원구 노원로 248 (하계동, 삼정 이오니아) 106호",37.6399249,127.0738056,11,"서울특별시"
4594,"502 세컨즈카페","2022-11-02","H113","노원구","하계동",11110,1135010400,"서울특별시 노원구 섬밭로 232 우성아파트",37.6365234,127.0663699,11,"서울특별시"
4829,"본죽 장위뉴타운점","2022-11-02","H113","성북구","장위동",11080,1129013800,"서울특별시 성북구 월계로40길 7 (장위동, 센트럴타운) 1층",37.6229633,127.0483692,11,"서울특별시"
4830,"샐러디 (장위뉴타운점)","2022-11-02","H113","성북구","장위동",11080,1129013800,"서울특별시 성북구 장월로 134, 1층 (장위동, 좌측(창가쪽))",37.6171293,127.0500747,11,"서울특별시"
4697,"본 죽&비빔밥 보라매점","2022-11-02","H113","동작구","신대방동",11200,1159010900,"서울특별시 동작구 보라매로5길 43 (신대방동, 보라매삼성쉐르빌) 105호",37.4913649,126.9233445,11,"서울특별시"
4698,"본죽 대림점","2022-11-02","H113","동작구","신대방동",11200,1159010900,"서울특별시 동작구 시흥대로 658 (신대방동)  1층",37.4903689,126.9080818,11,"서울특별시"
4699,"그리너 샐러드 신대방점","2022-11-02","H113","동작구","신대방동",11200,1159010900,"서울특별시 동작구 신대방11길 35 1호",37.4884922,126.9078151,11,"서울특별시"
4700,"샐러디 (보라매점)","2022-11-02","H113","동작구","신대방동",11200,1159010900,"서울특별시 동작구 보라매로5길 43, 1층 109호(신대방동, 보라매삼성쉐르빌)",37.4913649,126.9233445,11,"서울특별시"
3923,"강촌민물매운탕","2022-11-02","H113","동작구","신대방동",11200,1159010900,"서울특별시 동작구 여의대방로 126(신대방동)",37.4981243,126.9205559,11,"서울특별시"
3924,"돈까스참잘하는집","2022-11-02","H113","동작구","신대방동",11200,1159010900,"서울특별시 동작구 보라매로5길 43(신대방동,상가 120호)",37.4913649,126.9233445,11,"서울특별시"
3925,"궁중삼계탕","2022-11-02","H113","동작구","신대방동",11200,1159010900,"서울특별시 동작구 보라매로5길 43 건설회관 1층",37.4913649,126.9233445,11,"서울특별시"
3926,"궁중참순대","2022-11-02","H113","동작구","신대방동",11200,1159010900,"서울특별시 동작구 보라매로5길 15(신대방동,전문건설회관)",37.4920941,126.9242613,11,"서울특별시"
5001,"본 죽&비빔밥 한성대입구점","2022-11-02","H113","성북구","삼선동1가",11080,1129011100,"서울특별시 성북구 삼선교로 8 (삼선동1가, 기성빌딩) 1이 19번지",37.5874804,127.0078668,11,"서울특별시"
5417,"본 죽&비빔밥 강남구청역점","2022-11-02","H113","강남구","논현동",11230,1168010800,"서울특별시 강남구 논현동 112-3 1층",37.5174474,127.0389755,11,"서울특별시"
5418,"개성집","2022-11-02","H113","강남구","논현동",11230,1168010800,"서울특별시 강남구 봉은사로1길 6",37.5052609,127.025254,11,"서울특별시"
5419,"본 죽&비빔밥 학동역점","2022-11-02","H113","강남구","논현동",11230,1168010800,"서울특별시 강남구 학동로 165 (논현동, 마일스디오빌) 1층",37.5138145,127.028853,11,"서울특별시"
5420,"본 죽&비빔밥 논현점","2022-11-02","H113","강남구","논현동",11230,1168010800,"서울특별시 강남구 학동로4길 15 (논현동, 동화상가) 106호",37.5104724,127.0234896,11,"서울특별시"
5421,"샐러디 (학동역점)","2022-11-02","H113","강남구","논현동",11230,1168010800,"서울특별시 강남구 학동로 165, 103호(논현동, 마일스디오빌)",37.5138145,127.028853,11,"서울특별시"
5422,"샐러디 (언주아크로힐스점)","2022-11-02","H113","강남구","논현동",11230,1168010800,"서울특별시 강남구 언주로 604, 지하1층 112호(논현동)",37.5094462,127.0389876,11,"서울특별시"
5423,"스타일비건","2022-11-02","H113","강남구","논현동",11230,1168010800,"서울특별시 강남구 선릉로135길 6, 2층",37.5187807,127.0400557,11,"서울특별시"
5424,"그리너 샐러드 논현점","2022-11-02","H113","강남구","논현동",11230,1168010800,"서울특별시 강남구 강남대로124길 35",37.5094065,127.0253471,11,"서울특별시"
5425,"죠샌드위치 (논현학사)","2022-11-02","H113","강남구","논현동",11230,1168010800,"서울특별시 강남구 도산대로24길 15",37.5180317,127.0267056,11,"서울특별시"
5426,"퀴즈노스 (신사위워크)","2022-11-02","H113","강남구","논현동",11230,1168010800,"서울특별시 강남구 강남대로 586 위워크 빌딩 1층",37.5142061,127.0206243,11,"서울특별시"
5055,"본죽 도봉동점","2022-11-02","H113","도봉구","도봉동",11100,1132010800,"서울특별시 도봉구 도봉로 887 (도봉동)  ",37.6837429,127.0456772,11,"서울특별시"
5056,"죠샌드위치 (도봉한신)","2022-11-02","H113","도봉구","도봉동",11100,1132010800,"서울특별시 도봉구 도봉로180나길 41",37.6843537,127.0499096,11,"서울특별시"
5430,"본죽 가양역점","2022-11-02","H113","강서구","가양동",11160,1150010400,"서울특별시 강서구 양천로57길 9-19 (가양동)  동양트레벨스카이 105호",37.5636935,126.8509381,11,"서울특별시"
5431,"본죽 가양사거리점","2022-11-02","H113","강서구","가양동",11160,1150010400,"서울특별시 강서구 강서로 506 (가양동)  가양1동 1458-3",37.5704904,126.8420381,11,"서울특별시"
4265,"우거지품은순대국 도봉점","2022-11-02","H113","도봉구","도봉동",11100,1132010800,"서울특별시 도봉구 도봉산3길 31 1층 (도봉동)",37.6859635,127.0439594,11,"서울특별시"
4266,"큰맘할매순대국신도봉사거리점","2022-11-02","H113","도봉구","도봉동",11100,1132010800,"서울특별시 도봉구 시루봉로 305(지상1층 도봉동)",37.671386,127.0429789,11,"서울특별시"
4267,"병천토종순대국","2022-11-02","H113","도봉구","도봉동",11100,1132010800,"서울특별시 도봉구 도봉산3길 63, 지상1층 (도봉동)",37.6845297,127.0438077,11,"서울특별시"
4268,"봉평메밀막국수","2022-11-02","H113","도봉구","도봉동",11100,1132010800,"서울특별시 도봉구 도봉산4길 15(1층 도봉동)",37.6880567,127.0420844,11,"서울특별시"
4269,"오늘칼국수,냉면","2022-11-02","H113","도봉구","도봉동",11100,1132010800,"서울 도봉구 도봉산3길 86, 1층 (도봉동)",37.6836163,127.0434,11,"서울특별시"
4270,"도봉산박대감","2022-11-02","H113","도봉구","도봉동",11100,1132010800,"서울특별시 도봉구 도봉로 919(도봉동, 지상1층일부, 2층, 3층전체)",37.6864638,127.0456536,11,"서울특별시"
4271,"오늘칼국수,냉면","2022-11-02","H113","도봉구","도봉동",11100,1132010800,"서울 도봉구 도봉로 885-1, 1층 (도봉동)",37.6835716,127.045668,11,"서울특별시"
4272,"굿맘할매순대국","2022-11-02","H113","도봉구","도봉동",11100,1132010800,"서울특별시 도봉구 도봉산4나길 12-8 1층 (도봉동)",37.6879033,127.0431635,11,"서울특별시"
4273,"창원","2022-11-02","H113","도봉구","도봉동",11100,1132010800,"서울특별시 도봉구 도봉로180길 6(지상1층 도봉동, 태봉운동시설2동)",37.683039,127.0466612,11,"서울특별시"
4274,"장위동유성집","2022-11-02","H113","도봉구","도봉동",11100,1132010800,"서울특별시 도봉구 도봉로180나길 56",37.6837924,127.050699,11,"서울특별시"
4275,"콩사랑두부","2022-11-02","H113","도봉구","도봉동",11100,1132010800,"서울특별시 도봉구 도봉산4길 10(도봉동)",37.6878256,127.0424729,11,"서울특별시"
5038,"본 죽&비빔밥 구로항동점","2022-11-02","H113","구로구","항동",11170,1153011200,"서울특별시 구로구 서해안로 2104 (항동, 엠프라자) 108호",37.4803499,126.8236671,11,"서울특별시"
4261,"자연드림 성공회대점","2022-11-02","H113","구로구","항동",11170,1153011200,"서울특별시 구로구 연동로 320 성공회대학교",37.4874977,126.8257373,11,"서울특별시"
4647,"본죽 천왕점","2022-11-02","H113","구로구","천왕동",11170,1153011100,"서울특별시 구로구 천왕로 42 쿠앤하우스105호 ",37.4812223,126.8389963,11,"서울특별시"
5234,"대두네순두부","2022-11-02","H113","금천구","가산동",11180,1154510100,"서울특별시 금천구 가산디지털1로 131",37.4770612,126.8821474,11,"서울특별시"
5235,"본 죽&비빔밥 가산디지털점","2022-11-02","H113","금천구","가산동",11180,1154510100,"서울특별시 금천구 가산디지털1로 186 (가산동, 제이플라츠) 104-2호",37.4819307,126.8816,11,"서울특별시"
5236,"본도시락 가산디지털3단지점","2022-11-02","H113","금천구","가산동",11180,1154510100,"서울특별시 금천구 가산디지털1로 219 (가산동)  벽산디지털밸리 6차 104호",37.4844919,126.8789838,11,"서울특별시"
5237,"본 죽&비빔밥 가산테라타워점","2022-11-02","H113","금천구","가산동",11180,1154510100,"서울특별시 금천구 디지털로10길 78 (가산동) 가산테라타워 1층 122호",37.4745264,126.8894886,11,"서울특별시"
5238,"본 죽&비빔밥 독산역점","2022-11-02","H113","금천구","가산동",11180,1154510100,"서울특별시 금천구 범안로 1130 가산디지털엠파이어 108호",37.4654354,126.8876222,11,"서울특별시"
5239,"본도시락 가산점","2022-11-02","H113","금천구","가산동",11180,1154510100,"서울특별시 금천구 벚꽃로56길 182 (가산동, 램킨푸르지오시티) 106호 ",37.4796693,126.8883045,11,"서울특별시"
5240,"샐러디 (가산디지털단지점)","2022-11-02","H113","금천구","가산동",11180,1154510100,"서울특별시 금천구 가산디지털1로 181, 106호(가산동, 가산 W center)",37.4814237,126.8803978,11,"서울특별시"
5241,"샐러디 (독산클래식점)","2022-11-02","H113","금천구","가산동",11180,1154510100,"서울특별시 금천구 벚꽃로24길 26, 1층 118호(가산동)",37.4740148,126.8887387,11,"서울특별시"
5242,"스윗밸런스 (가산더블유센터)","2022-11-02","H113","금천구","가산동",11180,1154510100,"서울특별시 금천구 가산디지털1로 181 가산W센터 1층 118호",37.4814237,126.8803978,11,"서울특별시"
5244,"본죽 삼양사거리점","2022-11-02","H113","강북구","미아동",11090,1130510100,"서울특별시 강북구 삼양로 167 (미아동)  ",37.6188744,127.021054,11,"서울특별시"
5245,"샐러디 (미아점)","2022-11-02","H113","강북구","미아동",11090,1130510100,"서울특별시 강북구 솔매로 122, 1층(미아동) ",37.6260033,127.0256279,11,"서울특별시"
5246,"샐러디 (미아사거리점)","2022-11-02","H113","강북구","미아동",11090,1130510100,"서울특별시 강북구 도봉로8길 28, 1동 나호(미아동)",37.6122933,127.0315494,11,"서울특별시"
5432,"더마앤코스(풍문)","2022-11-02","H113","중구","남대문로5가",11020,1114011800,"서울특별시 중구 세종대로2길 6-1(남대문로5가)",37.5576433,126.9736968,11,"서울특별시"
5433,"쁘띠하노이(서울역점)","2022-11-02","H113","중구","남대문로5가",11020,1114011800,"서울특별시 중구 후암로 110(남대문로5가,지하1층)",37.554322,126.9741045,11,"서울특별시"
5434,"만복림","2022-11-02","H113","중구","남대문로5가",11020,1114011800,"서울특별시 중구 후암로 98(남대문로5가,STX 남산타워 지하1층)",37.5539682,126.9748676,11,"서울특별시"
5435,"본 죽&비빔밥 연세세브란스빌딩점","2022-11-02","H113","중구","남대문로5가",11020,1114011800,"서울특별시 중구 통일로 10 (남대문로5가, 연세대학교세브란스빌딩) 지하 1층",37.5571022,126.9736476,11,"서울특별시"
5436,"샐러디 (서울스퀘어점)","2022-11-02","H113","중구","남대문로5가",11020,1114011800,"서울특별시 중구 한강대로 416, 지하1층 5호(남대문로5가, 서울스퀘어)",37.5555084,126.9737713,11,"서울특별시"
4371,"한살림 미아매장","2022-11-02","H113","강북구","미아동",11090,1130510100,"서울특별시 강북구 솔샘로 184, 제상가동 1동 제지1층 제비115호",37.62022,127.01282,11,"서울특별시"
4372,"서울북부두레생협 미아점","2022-11-02","H113","강북구","미아동",11090,1130510100,"서울특별시 강북구 삼양로27길 46 (미아동)",37.6190438,127.018673,11,"서울특별시"
4373,"서울 명품 민물장어","2022-11-02","H113","강북구","미아동",11090,1130510100,"서울특별시 강북구 월계로  19",37.6102619,127.032142,11,"서울특별시"
4374,"본가아구찜","2022-11-02","H113","강북구","미아동",11090,1130510100,"서울특별시 강북구 도봉로67길  7",37.6306648,127.0238223,11,"서울특별시"
4375,"통큰아구다찜","2022-11-02","H113","강북구","미아동",11090,1130510100,"서울특별시 강북구 삼양로 250(미아동)",37.6257281,127.0185059,11,"서울특별시"
4376,"파주감자탕","2022-11-02","H113","강북구","미아동",11090,1130510100,"서울특별시 강북구 도봉로6길 8(미아동)",37.6125382,127.0306401,11,"서울특별시"
4377,"오리농장","2022-11-02","H113","강북구","미아동",11090,1130510100,"서울특별시 강북구 오패산로 113",37.6119589,127.0347251,11,"서울특별시"
4378,"신수유삼계탕","2022-11-02","H113","강북구","미아동",11090,1130510100,"서울특별시 강북구 덕릉로28길 18",37.6338836,127.0240861,11,"서울특별시"
4379,"하이포크 박가네","2022-11-02","H113","강북구","미아동",11090,1130510100,"서울특별시 강북구 덕릉로28길 63",37.6319169,127.0248709,11,"서울특별시"
4380,"옥춘반점","2022-11-02","H113","강북구","미아동",11090,1130510100,"서울특별시 강북구 덕릉로 92 1층",37.634531,127.0239191,11,"서울특별시"
4381,"용담추어탕","2022-11-02","H113","강북구","미아동",11090,1130510100,"서울특별시 강북구 도봉로65길 8 1층",37.6299283,127.0241152,11,"서울특별시"
4382,"부잣집설렁탕","2022-11-02","H113","강북구","미아동",11090,1130510100,"서울특별시 강북구 도봉로8길 9",37.6128733,127.0308509,11,"서울특별시"
4383,"송담추어탕 미아점","2022-11-02","H113","강북구","미아동",11090,1130510100,"서울특별시 강북구 도봉로  30",37.6116462,127.0306516,11,"서울특별시"
4384,"일품향","2022-11-02","H113","강북구","미아동",11090,1130510100,"서울특별시 강북구 도봉로29길 16",37.6206198,127.0272841,11,"서울특별시"
4385,"짐포리","2022-11-02","H113","강북구","미아동",11090,1130510100,"서울특별시 강북구 도봉로68길 11-11",37.6316293,127.0249653,11,"서울특별시"
4386,"한옥숯불갈비","2022-11-02","H113","강북구","미아동",11090,1130510100,"서울특별시 강북구 월계로 53-3",37.6121352,127.0353458,11,"서울특별시"
4955,"본죽 성산점","2022-11-02","H113","마포구","중동",11140,1144012600,"서울특별시 마포구 월드컵북로 230 현대상가 ",37.5699418,126.9034799,11,"서울특별시"
5457,"마지","2022-11-02","H113","종로구","체부동",11010,1111011200,"서울특별시 종로구 자하문로5길 19",37.577585,126.9707966,11,"서울특별시"
5458,"샐러디 (경복궁역점)","2022-11-02","H113","종로구","체부동",11010,1111011200,"서울특별시 종로구 자하문로 13-1(체부동)",37.5772983,126.9720232,11,"서울특별시"
5052,"본도시락 공덕역점","2022-11-02","H113","마포구","신공덕동",11140,1144010300,"서울특별시 마포구 백범로 205 (신공덕동, 마포펜트라우스) ",37.5433789,126.954078,11,"서울특별시"
5042,"본죽 송파엄마손점","2022-11-02","H113","송파구","석촌동",11240,1171010500,"서울특별시 송파구 가락로 113 (석촌동)  금도빌딩 101호",37.5016847,127.1086537,11,"서울특별시"
5043,"본죽 송파석촌점","2022-11-02","H113","송파구","석촌동",11240,1171010500,"서울특별시 송파구 송파대로 451 (석촌동) ",37.5065538,127.1055194,11,"서울특별시"
5044,"그리너샐러드 잠실점","2022-11-02","H113","송파구","석촌동",11240,1171010500,"서울특별시 송파구 가락로15길 7-1",37.501559,127.1063254,11,"서울특별시"
5045,"샐러디 (석촌호수점)","2022-11-02","H113","송파구","석촌동",11240,1171010500,"서울특별시 송파구 송파대로 453, 1층 102호(석촌동, 레이크빌빌딩)",37.5067775,127.1053131,11,"서울특별시"
5190,"본죽 일원점","2022-11-02","H113","강남구","일원동",11230,1168011400,"서울특별시 강남구 일원로 43 (일원동)  1층",37.49006,127.081449,11,"서울특별시"
